id,ident,type,name,latitude_deg,longitude_deg,elevation_ft,continent,iso_country,iso_region,municipality,scheduled_service,gps_code,iata_code,local_code,home_link,wikipedia_link,keywords
42570,KE-6055,small_airport,Turkwel Gorge Airport,1.895681,35.38826,2625,AF,KE,KE-700,Turkwel Gorge,no,,,,,,
1095,CJM4,small_airport,Gravelbourg Airport,49.86620712,-106.5710754,2296,NA_,CA,CA-SK,Gravelbourg,no,CJM4,,CJM4,,https://en.wikipedia.org/wiki/Gravelbourg_Airport,JM4
10623,3MO1,heliport,Police Department Helicopter Maint Facility Heliport,39.04579926,-94.49749756,855,NA_,US,US-MO,Kansas City,no,3MO1,,3MO1,,,
23228,NM08,small_airport,Solo Ranch Airport,32.262532,-107.393332,4200,NA_,US,US-NM,Deming,no,NM08,,NM08,,,
2807,FAMB,small_airport,Middelburg Airport,-25.68479919,29.44020081,4886,AF,ZA,ZA-MP,Middelburg,no,FAMB,,,,,
787,CCW4,small_airport,Stanley Airport,45.1006012,-63.92060089,95,NA_,CA,CA-NS,Stanley,no,CCW4,,CCW4,,https://en.wikipedia.org/wiki/Stanley_Airport,CW4
10781,3SD6,small_airport,Running Colors Airport,44.20220184,-103.0790024,2920,NA_,US,US-SD,Rapid City,no,3SD6,,3SD6,,,
23014,NH61,small_airport,Heaton Airport,42.9681015,-71.18119812,188,NA_,US,US-NH,Chester,no,NH61,,NH61,,,
21936,PAMD,small_airport,Middleton Island Airport,59.44990158,-146.3070068,100,NA_,US,US-AK,Middleton Island,no,PAMD,MDO,MDO,,https://en.wikipedia.org/wiki/Middleton_Island_Airport,
45740,23PN,heliport,Penn Highlands Clearfield Heliport,41.034006,-78.450147,1160,NA_,US,US-PA,Clearfield,no,23PN,,23PN,,,Clearfield Hospital
10994,42II,closed,Norm's Airpark,41.684502,-86.767799,740,NA_,US,US-IN,La Porte,no,,,,,,42II
9428,2IA1,heliport,Finley Hospital Heliport,42.49580002,-90.68489838,900,NA_,US,US-IA,Dubuque,no,2IA1,,2IA1,,,
22199,MN95,small_airport,Velo Airstrip,46.51110077,-96.19200134,1386,NA_,US,US-MN,Rothsay,no,MN95,,MN95,,,
5263,OPMR,medium_airport,Masroor Air Base,24.89360046,66.938797,35,AS,PK,PK-SD,Karachi,no,OPMR,,,,https://en.wikipedia.org/wiki/Masroor_Airbase,
9885,2XA5,small_airport,Someday Ranch Airport,29.80369949,-97.69120026,466,NA_,US,US-TX,Lockhart,no,2XA5,,2XA5,,,
322368,US-0465,small_airport,Falwell Freeway,35.465008,-91.362532,,NA_,US,US-AR,Possum Grape,no,FALF,,FALF,,,
26761,WALQ,small_airport,Muara Badak Pujangan Airport,-0.306075007,117.4160004,49,AS,ID,ID-KI,Muara Badak-Borneo Island,no,WALQ,,,,,
16937,CO84,small_airport,Idlers Field,39.60829926,-102.5410004,4159,NA_,US,US-CO,Kirk,no,CO84,,CO84,,,
16302,AR08,small_airport,Flying Machines Airstrip,36.31529999,-93.66660309,1150,NA_,US,US-AR,Eureka Springs,no,AR08,,AR08,,,
27183,YWYM,small_airport,Wyndham Airport,-15.51140022,128.1529999,14,OC,AU,AU-WA,,no,YWYM,WYN,,,,
42398,NA-0133,small_airport,Aris Landrig Strip,-22.7563839,17.13526726,5820,AF,NA_,NA-KH,Aris,no,,,,,,
335788,US-1301,closed,Baird Ranch Airstrip,30.276247,-98.310106,,NA_,US,US-TX,Johnson City,no,,,,,,
42681,KE-0038,small_airport,Olpejeta Airport,0.030610999,36.90083313,5845,AF,KE,KE-700,Olpejeta,no,,,,,,
36072,SIKT,heliport,Joaquim Floriano Heliport,-23.583339,-46.670984,2687,SA,BR,BR-SP,São Paulo,no,SIKT,,SP0519,,,
330878,RU-0501,closed,Bogoslovo Airport,56.192328,40.31477,500,EU,RU,RU-VLA,Vladimir,no,,,,,,
308384,MX-0021,small_airport,Todos Santos Airstrip,23.498333,-110.201944,432,NA_,MX,MX-BCS,Todos Santos,no,,,TSN,,https://en.wikipedia.org/wiki/Todos_Santos_Airstrip,
35787,SDWL,small_airport,Três Marias Airport,-23.19166756,-47.07500076,2566,SA,BR,BR-SP,Itupeva,no,SDWL,,,,,
1552,CSR3,small_airport,Victoriaville Airport,46.1128006,-71.92890167,486,NA_,CA,CA-QC,Victoriaville,no,CSR3,,CSR3,,https://en.wikipedia.org/wiki/Victoriaville_Airport,SR3
329890,US-1031,closed,Crists' Sky Ranch Airport,40.622226,-96.901972,1465,NA_,US,US-NE,Crete,no,,,,,,7NE0
17472,G05,small_airport,Finleyville Airpark,40.2458992,-80.01229858,1240,NA_,US,US-PA,Finleyville,no,G05,,G05,,,
233,SIPG,small_airport,Fazenda Água Preta Airport,-14.137595,-51.469531,794,SA,BR,BR-MT,Cocalinho,no,SIPG,,MT0115,,,
20793,KP04,small_airport,Bisbee Municipal Airport,31.36400032,-109.8830032,4780,NA_,US,US-AZ,Bisbee,no,P04,BSQ,P04,http://www.discoverbisbee.com/about_air.htm,https://en.wikipedia.org/wiki/Bisbee_Municipal_Airport,
35531,SDGP,small_airport,Hotel Fazenda Capricho Airport,-23.221801,-48.790794,2099,SA,BR,BR-SP,Avaré,no,,,,,,SDGP
39291,SCTR,small_airport,Traiguén Airport,-38.27138901,-72.66249847,812,SA,CL,CL-AR,Traiguen,no,SCTR,,,,,
4038,LEST,large_airport,Santiago de Compostela Airport,42.89630127,-8.415140152,1213,EU,ES,ES-GA,Santiago de Compostela,yes,LEST,SCQ,,,https://en.wikipedia.org/wiki/Santiago_de_Compostela_Airport,
37930,SWJR,small_airport,Fazenda União Airport,-11.94888878,-54.51555634,1180,SA,BR,BR-MT,Santa Carmen,no,SWJR,,,,,
319040,MX-0177,heliport,Balder Platform Helipad,20.153239,-91.965086,50,NA_,MX,MX-CAM,Ciudad Del Carmen,no,,,BLR,,,
41019,SK-523,small_airport,Las Gaviotas Airport,4.583333,-70.833333,600,SA,CO,CO-VID,Las Gaviotas,no,,,,,,
10204,36OR,small_airport,Jasper Ridge Airstrip,44.00329971,-122.8799973,1125,NA_,US,US-OR,Springfield/Jasper,no,36OR,,36OR,,,
334572,JP-0207,heliport,Sumitomo Mitsui Bank East Tower Helipad,35.68467,139.76369,,AS,JP,JP-13,"Chiyoda, Tokyo",no,,,,,,
4872,MM20,small_airport,Ingeniero Juan Antonio Perdomo Diaz Airport,18.874201,-96.958199,2960,NA_,MX,MX-VER,Cordoba,no,MM20,,CRV,,https://es.wikipedia.org/wiki/Aeropuerto_Nacional_Ingeniero_Juan_Antonio_Perdomo_D%C3%ADaz,"Cordaba Airport, MX29"
326229,MX-0607,small_airport,El Guamuchil Airstrip,24.833722,-106.54809,771,NA_,MX,MX-DUR,Santiago Papasquiaro,no,,,EGM,,,
27116,YPOD,medium_airport,Portland Airport,-38.31809998,141.470993,265,OC,AU,AU-VIC,,yes,YPOD,PTJ,,,https://en.wikipedia.org/wiki/Portland_Airport_(Australia),
36023,SIIG,small_airport,Eliza Camargo de Arruda Botelho Airport,-22.359959,-51.101661,1756,SA,BR,BR-SP,Rancharia,no,SIIG,,SP0182,,,
298381,CA-0459,small_airport,Seagrave Airfield,44.16689103,-78.93502951,,NA_,CA,CA-ON,,no,,,,,,
36216,SIQV,small_airport,Fazenda Matão Airport,-12.891057,-58.57503,1499,SA,BR,BR-MT,Sapezal,no,SIQV,,MT0120,,,Fazenda Sol Aberto
39059,SACL,small_airport,Laguna Larga Airport,-31,-63,1013,SA,AR,AR-X,Laguna Larga,no,SACL,,LRG,,,
298811,YBGD,small_airport,Boolgeeda,-22.54,117.275,1871,OC,AU,AU-WA,,no,YBGD,OCM,,,,
28983,LFQH,small_airport,Châtillon Sur Seine Airfield,47.843924,4.580045,905,EU,FR,FR-BFC,,no,LFQH,,,,,
323697,BR-0218,small_airport,Goiatins Airstrip,-7.707254,-47.330409,,SA,BR,BR-TO,Goiatins,no,,,,,,
318135,LHLI,small_airport,Lipót,47.8575,17.4483333,,EU,HU,HU-GS,,no,LHLI,,,,,"Lipót,Szigetköz"
22683,N61,small_airport,Hinshaw (Greenacres) Airport,35.87369919,-79.52749634,750,NA_,US,US-NC,Liberty,no,N61,,N61,,,
26641,VTBK,medium_airport,Kamphaeng Saen Airport,14.10200024,99.91719818,30,AS,TH,TH-72,Nakhon Pathom,no,VTBK,KDT,,,,
316893,MX-0112,closed,Santiago Airport,19.4898,-97.5684,7730,NA_,MX,MX-PUE,Libres,no,,,SGS,,,
24081,PAPE,small_airport,Perryville Airport,55.905998,-159.162993,29,NA_,US,US-AK,Perryville,no,PAPE,KPV,PEV,,https://en.wikipedia.org/wiki/Perryville_Airport,AK05
17038,CT84,heliport,Partyka Chevrolet Heliport,41.37369919,-72.90869904,50,NA_,US,US-CT,Hamden,no,CT84,,CT84,,,
309696,YXKE,closed,Kempsey Hospital Helicopter Landing Site,-31.067128,152.821257,68,OC,AU,AU-NSW,Kempsey,no,YXKE,,YXKE,,,
333673,BR-0584,small_airport,Fazenda Reunidas Sococo,-1.224084,-48.041476,161,SA,BR,BR-PA,Santa Isabel do Pará,no,SISR,,PA0057,,,
45498,22MS,small_airport,Sky Landings Airport,30.840278,-88.574722,260,NA_,US,US-MS,Lucedale,no,22MS,,22MS,,,
2506,EGXW,medium_airport,RAF Waddington,53.16619873,-0.523810983,231,EU,GB,GB-ENG,Waddington,no,EGXW,WTN,,http://www.raf.mod.uk/rafwaddington,https://en.wikipedia.org/wiki/RAF_Waddington,
42576,KE-6066,small_airport,Ngerende Airport,-1.083519,35.18565,5510,AF,KE,KE-700,Ngerende,no,,,,,,
328338,KR-0855,heliport,Korea Telecommunications (KT) Building Heliport,37.521923,126.919062,,AS,KR,KR-11,Seoul,no,,,,,,"Korea Telecommunications, KT"
20861,KPPQ,small_airport,Pittsfield Penstone Municipal Airport,39.63890076,-90.77839661,710,NA_,US,US-IL,Pittsfield,no,KPPQ,,PPQ,,,
324118,BO-0014,small_airport,Espiritu Airstrip,-16.226916,-60.546454,,SA,BO,BO-S,Espiritu,no,,,,,,
5775,SADF,medium_airport,San Fernando Airport,-34.4532,-58.5896,10,SA,AR,AR-B,San Fernando,no,SADF,FDO,FDO,,,
3730,KNIP,medium_airport,Jacksonville Naval Air Station (Towers Field),30.2358,-81.680603,21,NA_,US,US-FL,Jacksonville,no,KNIP,NIP,NIP,,https://en.wikipedia.org/wiki/Naval_Air_Station_Jacksonville,
333093,WITK,medium_airport,Rembele Airport,4.720833,96.849444,4648,AS,ID,ID-AC,Takengon,yes,WITK,TXE,,,https://en.wikipedia.org/wiki/Rembele_Airport,
325095,US-0682,small_airport,J5 Mike Airport,34.666347,-86.222286,680,NA_,US,US-AL,Woodville,no,4AL5,,4AL5,,,
22882,ND65,small_airport,Letzring Airport,46.98889923,-101.3539963,2230,NA_,US,US-ND,Center,no,ND65,,ND65,,,
334877,BR-0680,heliport,André Guimarães Helipad,-12.875365,-38.308721,197,SA,BR,BR-BA,Lauro de Freitas,no,SWGK,,BA0230,,,
35413,AR-0018,small_airport,Villa Mercedes Airport,-33.640858,-65.420074,1689,SA,AR,AR-D,Villa Mercedes,no,,,CED,,,
12102,56OR,heliport,Mount Hood Medical Center Heliport,45.51593669,-122.4064493,338,NA_,US,US-OR,Gresham,no,56OR,,56OR,,https://en.wikipedia.org/wiki/Mount_Hood_Medical_Center_Heliport,
3675,KMEM,large_airport,Memphis International Airport,35.04240036,-89.97669983,341,NA_,US,US-TN,Memphis,yes,KMEM,MEM,MEM,,https://en.wikipedia.org/wiki/Memphis_International_Airport,
21957,ME26,closed,Super Cub Field,43.668098,-70.363098,85,NA_,US,US-ME,Westbrook,no,,,,,,ME26
8931,23CA,small_airport,Lefko Airport,41.62490082,-122.7649994,2860,NA_,US,US-CA,Fort Jones,no,23CA,,23CA,,,
316039,GB-0199,small_airport,Sittles Farm Airstrip,52.7071274,-1.7500554,,EU,GB,GB-ENG,,no,,,,,,
325460,KXNI,small_airport,Andrew Othole Memorial Airport,35.060675,-108.9376,6370,NA_,US,US-NM,Zuni,no,KXNI,,XNI,,,Zuni Pueblo - Replacement
333517,MX-1165,small_airport,Las Trancas Airstrip,24.749131,-106.636391,3445,NA_,MX,MX-DUR,Tamazula,no,,,LTQ,,,
26575,VISA,medium_airport,Sirsa Air Force Station,29.56060028,75.00610352,650,AS,IN,IN-HR,,no,VISA,,,,,
40913,SK-421,small_airport,Hato De Opia Airport,4.421667,-75.083056,2601,SA,CO,CO-TOL,Ibague,no,,,HOP,,,
4349,LIMW,medium_airport,Aosta Airport,45.738499,7.36872,1791,EU,IT,IT-23,Aosta,yes,LIMW,AOT,AO01,http://www.avda-aosta.it/,https://en.wikipedia.org/wiki/Aosta_Airport,
329701,OK78,small_airport,Delozier Airport,36.559107,-95.431694,750,NA_,US,US-OK,Chelsea,no,OK78,,OK78,,,
9328,2B2,small_airport,Plum Island Airport,42.79589844,-70.84120178,11,NA_,US,US-MA,Newburyport,no,2B2,,2B2,,,
18523,K1V8,small_airport,Leach Airport,37.78469849,-106.038002,7598,NA_,US,US-CO,Center,no,K1V8,,1V8,,,
15134,8OR0,heliport,Danielson Heliport,45.53340149,-122.9550018,204,NA_,US,US-OR,Hillsboro,no,8OR0,,8OR0,,,
319429,IT-0278,small_airport,Aviosuperficie Falcone,41.101343,15.871805,498,EU,IT,IT-77,Lavello (PZ),no,,,PZLAV,,,
27661,YJVS,small_airport,Jervois Airport,-22.91329956,136.1199951,331,OC,AU,AU-NT,,no,YJVS,,,,,
12733,5WI3,small_airport,Der Schwarzwald Airport,43.20780182,-89.01709747,925,NA_,US,US-WI,Waterloo,no,5WI3,,5WI3,,,
640,CAS2,small_airport,Moose Lake (Lodge) Airport,53.07329941,-125.4089966,3500,NA_,CA,CA-BC,Moose Lake,no,CAS2,,CAS2,,https://en.wikipedia.org/wiki/Moose_Lake_(Lodge)_Airport,AS2
25677,WA85,heliport,Weyerhaeuser Heliport,47.2981987,-122.2979965,409,NA_,US,US-WA,Auburn,no,WA85,,WA85,,,
328874,MX-0802,small_airport,Tecolotlan Airstrip,20.19999,-104.082292,4150,NA_,MX,MX-JAL,Tecolotlan,no,,,TEO,,,
6486,UKON,medium_airport,Mykolaiv International Airport,47.05789948,31.9197998,184,EU,UA,UA-48,Nikolayev,no,UKON,NLV,,http://www.airport.nikolaev.ua/,https://en.wikipedia.org/wiki/Mykolaiv_Airport,"Nikolayev Airport, Nikolaev Airport, Аэропорт Николаев"
19924,KGAS,small_airport,Gallia Meigs Regional Airport,38.83409882,-82.16339874,566,NA_,US,US-OH,Gallipolis,no,KGAS,,GAS,,,
25451,VG16,small_airport,Collins Airport,36.62509918,-80.17060089,1100,NA_,US,US-VA,Patrick Springs,no,VG16,,VG16,,,
31375,FZFJ,small_airport,Goyongo Airport,4.183000088,19.78300095,1640,AF,CD,CD-EQ,Goyongo,no,FZFJ,,,,,
7732,11NY,small_airport,Saikkonen Airport,42.20899963,-76.4496994,969,NA_,US,US-NY,Spencer,no,11NY,,11NY,,,
395,SNSS,small_airport,Salinas Airport,-16.20829964,-42.3219986,2504,SA,BR,BR-MG,Salinas,no,SNSS,,SNSS,,,
8495,1MT7,small_airport,Prill Field,47.42110062,-111.1589966,3420,NA_,US,US-MT,Sand Coulee,no,1MT7,,1MT7,,,
3973,LAVL,medium_airport,Vlorë Air Base,40.47610092,19.4741993,3,EU,AL,AL-12,Vlorë,no,LAVL,,,,,Vlora Air Base
16389,AZ01,small_airport,Outback Ranch Airstrip,33.847732,-113.57106,1980,NA_,US,US-AZ,Wenden,no,AZ01,,AZ01,,,
330693,10NR,heliport,CHS Union Heliport,34.976678,-80.522055,581,NA_,US,US-NC,Monroe,no,10NR,,10NR,,,
31890,YMOT,small_airport,Moreton Airport,-12.44419956,142.6380005,,OC,AU,AU-QLD,Moreton,no,YMOT,MET,,,,
1193,CKJ9,small_airport,Lemberg Airport,50.70890045,-103.1969986,2050,NA_,CA,CA-SK,Lemberg,no,CKJ9,,CKJ9,,https://en.wikipedia.org/wiki/Lemberg_Airport,KJ9
30159,SNMS,small_airport,Monte Santo de Minas Airport,-21.17580032,-46.95890045,2936,SA,BR,BR-MG,Monte Santo De Minas,no,SNMS,0,,,,
12205,59CO,small_airport,Comanche Livestock Airport,39.83330154,-104.3170013,5230,NA_,US,US-CO,Strasburg,no,59CO,,59CO,,,
15631,99UT,small_airport,Sundog Airport,40.3506012,-109.401001,4900,NA_,US,US-UT,Jensen,no,99UT,,99UT,,,
17242,FA52,heliport,Advent Hospital-Sebring Heliportt,27.538057,-81.509274,154,NA_,US,US-FL,Sebring,no,FA52,,FA52,,,Florida Hospital-Sebring
299722,3FA8,seaplane_base,Searey Central SPB,28.766111,-81.74611,67,NA_,US,US-FL,Tavares,no,3FA8,,3FA8,,,
329422,SIJV,small_airport,Fazenda Santa Julieta Airport,-21.579521,-49.874464,1394,SA,BR,BR-SP,Promissão,no,SIJV,,SIJV,,,
23138,NJ93,heliport,Alexanders-Menlo Park Heliport,40.54729843,-74.34130096,82,NA_,US,US-NJ,Menlo Park,no,NJ93,,NJ93,,,
11648,4OI0,heliport,Flower Hospital Heliport,41.70840073,-83.69219971,661,NA_,US,US-OH,Sylvania,no,4OI0,,4OI0,,,
18295,JY36,heliport,Mianecki Heliport,41.0367012,-74.84719849,626,NA_,US,US-NJ,Newton,no,JY36,,JY36,,,
7629,0XA3,heliport,Midstream Freeport Heliport,28.97170067,-95.28309631,6,NA_,US,US-TX,Freeport,no,0XA3,,0XA3,,,
315974,IT-0122,small_airport,Aviosuperficie Aerotre,40.443303,17.630114,256,EU,IT,IT-75,Manduria (TA),no,,,TAMAN,,,
318456,BR-0100,small_airport,Montes Altos Airport,-5.838959,-47.058035,,SA,BR,BR-MA,Montes Altos,no,,,,,,
13669,70TA,closed,BTA Heliport,31.996799,-102.081001,2815,NA_,US,US-TX,Midland,no,,,,,,70TA
316112,US-0279,heliport,Williamson ARH Hospital Heliport,37.6766,-82.2964,679,NA_,US,US-KY,South Williamson,no,3KY6,,3KY6,,,
320651,CHL2,small_airport,Hillaton/Kings Aerodrome,45.1442,-64.4229,89,NA_,CA,CA-NS,Hillaton,no,CHL2,,CHL2,,https://en.wikipedia.org/wiki/Hillaton/Kings_Aerodrome,
335823,BR-1054,small_airport,Ten. Brig. Ar Waldir de Vasconcelos Airport,-22.983968,-43.37706,10,SA,BR,BR-RJ,Rio de Janeiro,no,SIWV,,RJ0024,,,
334173,DE-0433,small_airport,Luftsportverein Parchim,53.41861,11.80167,,EU,DE,DE-MV,,no,,,,,,
324183,KR-0148,heliport,Bangtong-ri Helipad,38.286356,127.55021,,AS,KR,KR-42,Bangtong-ri,no,,,,,,Bangtong-ri
9339,2CA4,small_airport,Blackinton Airport,33.25889969,-117.0920029,1156,NA_,US,US-CA,Valley Center,no,2CA4,,2CA4,,,
23859,OR08,small_airport,Barton Lake Ranch Airport,43.12879944,-118.677002,4159,NA_,US,US-OR,Diamond,no,OR08,,OR08,,,
31431,FZOQ,small_airport,Punia-Basenge Airport,-1.467000008,26.43300056,1738,AF,CD,CD-MA,Punia-Basenge,no,FZOQ,,,,,
40845,SK-259,small_airport,El Coraje Airport,10.038056,-74.02,260,SA,CO,CO-MAG,Ariguani,no,,,AUR,,,
18579,K2F1,small_airport,Shamrock Municipal Airport,35.23619843,-100.1849976,2369,NA_,US,US-TX,Shamrock,no,K2F1,,2F1,,,
29589,NA-0043,small_airport,Meier Airstrip Landing Site,-24.89189911,16.20030022,4849,AF,NA_,NA-HA,,no,,,,,,
25683,WA91,heliport,Pathfinder Helicopter Heliport,47.75880051,-117.1549988,3440,NA_,US,US-WA,Spokane,no,WA91,,WA91,,,
18811,K4D0,small_airport,Abrams Municipal Airport,42.77420044,-84.73310089,842,NA_,US,US-MI,Grand Ledge,no,K4D0,,4D0,,https://en.wikipedia.org/wiki/Abrams_Municipal_Airport,
317888,IT-0221,small_airport,"Aviosuperficie ""Avioclub Montagnana""",45.24438,11.42567,32,EU,IT,IT-34,Montagnana (PD),no,,,PDMON,,,Baschirotto
35780,SDWB,heliport,Cyk Heliport,-23.56611061,-46.65166855,2986,SA,BR,BR-SP,São Paulo,no,SDWB,,,,,
327483,KR-0511,heliport,Cheonmi-ri South Heliport,38.247439,127.871211,,AS,KR,KR-42,Cheonmi-ri,no,,,,,,Cheonmi-ri
6659,02LS,heliport,Windy Hill Heliport,30.14830017,-91.91899872,25,NA_,US,US-LA,Broussard,no,02LS,,02LS,,,
19006,K6R3,small_airport,Cleveland Municipal Airport,30.35639954,-95.00800323,150,NA_,US,US-TX,Cleveland,no,K6R3,,6R3,,,
30886,FSDR,small_airport,Desroches Airport,-5.6967,53.6558,10,AF,SC,SC-15,Desroches Island,no,FSDR,DES,,,https://en.wikipedia.org/wiki/Desroches_Airport,
34976,KZ-7470,medium_airport,Dolon Air Base,50.54000092,79.19000244,705,AS,KZ,KZ-VOS,Semey,no,,,,,https://en.wikipedia.org/wiki/Dolon_(air_base),"Chagan-16, Semipalitinsk Dolon"
43499,FR-0159,heliport,Centre Hospitalier Cholet Heliport,47.04222107,-0.895833015,351,EU,FR,FR-PDL,Cholet,no,,,,,,
10816,3TN7,heliport,Pigeon Forge Heliport,35.72430038,-83.63929749,1400,NA_,US,US-TN,Pigeon Forge,no,3TN7,,3TN7,,,
323783,BGSO,heliport,Saarloq Heliport,60.537778,-46.024722,,NA_,GL,GL-U-A,,no,BGSO,QOQ,,,https://en.wikipedia.org/wiki/Saarloq_Heliport,
839,CED3,small_airport,Oyen Municipal Airport,51.33420181,-110.4909973,2498,NA_,CA,CA-AB,Oyen,no,CED3,,CED3,,https://en.wikipedia.org/wiki/Oyen_Municipal_Airport,ED3
5774,SACT,closed,Chamical Airport,-30.34530067,-66.29360198,1502,SA,AR,AR-F,Gobernador Gordillo,no,SACT,,GOR,,,
29147,EGHP,small_airport,Popham Airfield,51.193901,-1.23472,550,EU,GB,GB-ENG,Basingstoke,no,EGHP,,,http://www.popham-airfield.co.uk/,https://en.wikipedia.org/wiki/Popham_Airfield,
37228,SNQL,small_airport,Bom Jesus Airport,-15.73499966,-57.34638977,482,SA,BR,BR-MT,Cáceres,no,SNQL,,,,,
22004,ME89,small_airport,Buzzy's Field,43.60839844,-70.9681015,650,NA_,US,US-ME,Acton,no,ME89,,ME89,,,
9469,2IS1,heliport,Proctor Hospital Heliport,40.75059891,-89.59449768,640,NA_,US,US-IL,Peoria,no,2IS1,,2IS1,,,
13774,73MU,small_airport,Sky-Go Farms Airport,38.88560104,-91.96910095,878,NA_,US,US-MO,Fulton,no,73MU,,73MU,,,
39080,SAYS,small_airport,San Martín Base,-68.11669922,-67.09999847,75,AN,AQ,AQ-U-A,,no,SAYS,,BSM,,https://en.wikipedia.org/wiki/San_Martin_Base,
40761,SK-274,small_airport,Canaima Airport,4.118056,-73.266944,761,SA,CO,CO-MET,Villavicencio,no,,,CMA,,,
44160,CN-0082,medium_airport,Baise Youjiang Airport,23.72060013,106.9599991,490,AS,CN,CN-45,Baise,yes,ZGBS,AEB,,,https://en.wikipedia.org/wiki/Baise_Youjiang_Airport,"Tian Yang Air Base, Bose airport, 百色右江机场"
8673,1TE6,small_airport,Moore Airport,35.11809921,-102.1849976,3850,NA_,US,US-TX,Wildorado,no,1TE6,,1TE6,,,
37355,SNYL,small_airport,Fazenda São João Airport,-18.42694473,-46.05194473,3300,SA,BR,BR-MG,Varjão De Minas,no,SNYL,,,,,
9740,2S0,small_airport,Twisp Municipal Airport,48.3506012,-120.0940018,1602,NA_,US,US-WA,Twisp,no,2S0,,2S0,,,
30577,EPZA,small_airport,Zamość-Mokre Airport,50.7016983,23.20439911,751,EU,PL,PL-LU,Zamość,no,EPZA,,,,,
21234,KTVK,small_airport,Centerville Municipal Airport,40.68389893,-92.90100098,1023,NA_,US,US-IA,Centerville,no,KTVK,,TVK,,,
15992,9TS6,small_airport,Goodlett Field,32.37889862,-97.17829895,690,NA_,US,US-TX,Alvarado,no,9TS6,,9TS6,,,
23684,OI36,small_airport,Farpoint Airfield,39.62250137,-84.48310089,990,NA_,US,US-OH,Gratis,no,OI36,,OI36,,,
31196,FNMQ,small_airport,Maquela do Zombo Airport,-6.030280113,15.13689995,3051,AF,AO,AO-UIG,Maquela do Zombo,no,FNMQ,,,,,
330891,RU-0513,closed,Turtino Airport,56.368268,40.266128,525,EU,RU,RU-VLA,Vysheslavskoye,no,,,,,,
2400,EGCK,small_airport,Caernarfon Airport,53.101819,-4.337614,1,EU,GB,GB-WLS,Caernarfon,no,EGCK,,,http://www.caernarfonairport.com,https://en.wikipedia.org/wiki/Caernarfon_Airport,
30313,SADQ,small_airport,Quilmes Airport,-34.7064,-58.2444,6,SA,AR,AR-B,Quilmes,no,SADQ,,ILM,,,
26582,VLHS,small_airport,Ban Huoeisay Airport,20.25729942,100.4369965,1380,AS,LA,LA-BK,Huay Xai,yes,VLHS,HOE,,,https://en.wikipedia.org/wiki/Ban_Huoeisay_Airport,"Ban Houayxay, Ban Houei Sai, Ban Huay Xai, ສະໜາມບິນບໍ່ແກ້຿"
315832,KP-0066,heliport,Hyangsan Heliport,40.026228,126.175337,,AS,KP,KP-03,Hyangsan,no,,,,,,
32096,BIOF,small_airport,Ólafsfjörður Airport,66.08329773,-18.66670036,32,EU,IS,IS-6,Ólafsfjörður,no,BIOF,OFJ,,,,
29702,EPBA,small_airport,Bielsko Biala Airport,49.80500031,19.00189972,1319,EU,PL,PL-SL,,no,EPBA,,,,,
14239,7MN4,small_airport,Mille Lacs Lake Resort Airport,46.31940079,-93.83080292,1261,NA_,US,US-MN,Garrison,no,7MN4,,7MN4,,,
11132,45OH,small_airport,Boober Airport,38.975994,-84.219511,854,NA_,US,US-OH,New Richmond,no,45OH,,45OH,,,
10275,38GA,heliport,Lanier Park Hospital Heliport,34.31969833,-83.79669952,1171,NA_,US,US-GA,Gainesville,no,38GA,,38GA,,,
16516,C43,small_airport,Hiram Cure Airport,42.77000046,-84.96499634,853,NA_,US,US-MI,Sunfield,no,C43,,C43,,,
30388,SLRA,small_airport,San Ramón Airport,-13.2639,-64.603897,698,SA,BO,BO-B,San Ramón / Mamoré,no,SLRA,SRD,,,https://en.wikipedia.org/wiki/San_Ram%C3%B3n_Airport,
11945,52Z,seaplane_base,Summit Lake Seaplane Base,60.64110184,-149.496994,1300,NA_,US,US-AK,Moose Pass,no,52Z,,52Z,,,
3875,KSEA,large_airport,Seattle Tacoma International Airport,47.449001,-122.308998,433,NA_,US,US-WA,Seattle,yes,KSEA,SEA,SEA,http://www.portseattle.org/seatac/,https://en.wikipedia.org/wiki/Seattle–Tacoma_International_Airport,
7152,0CT5,heliport,St Francis Hospital Heliport,41.7745018,-72.6989975,184,NA_,US,US-CT,Hartford,no,0CT5,,0CT5,,,
45035,RU-0272,heliport,Belaya Dacha Helipad,55.65501347,37.86737323,,EU,RU,RU-MOS,Kotelniki,no,,,,,,Вертолётная площадка Белая Дача
18019,IL44,heliport,Arrow Heliport,42.40340042,-88.18759918,738,NA_,US,US-IL,Fox Lake,no,IL44,,IL44,,,
45050,CMN4,small_airport,Minto,62.60472222,-137.2219444,2969,NA_,CA,CA-YT,,no,CMN4,,,,,
36884,SJTX,heliport,Fazenda Nelore Heliport,-3.731389046,-45.2733345,182,SA,BR,BR-MA,Bela Vista Do Maranhão,no,SJTX,,,,,
22512,MU16,small_airport,Spillman Field,40.00030136,-93.78990173,981,NA_,US,US-MO,Jamesport,no,MU16,,MU16,,,
14167,7IS7,small_airport,Hammock Field,38.91389847,-89.67009735,595,NA_,US,US-IL,Alhambra,no,7IS7,,7IS7,,,
9473,2IS6,closed,Red Shed Field,42.418098,-89.822601,900,NA_,US,US-IL,Lena,no,,,,,,2IS6
35323,OATQ,small_airport,Talolqan Airport,36.77069855,69.53199768,2606,AS,AF,AF-TAK,Taloqan,no,OATQ,TQN,,,https://en.wikipedia.org/wiki/Taloqan_Airport,"Taluqan, Taleqan"
17742,IA65,small_airport,Donnellson Airport,40.6208992,-91.54180145,700,NA_,US,US-IA,Donnellson,no,IA65,,IA65,,,
313630,JP-0007,small_airport,Oitakenou Airport,33.026331,131.505577,771,AS,JP,JP-44,Bungo-ono,no,ROIT,,,http://www.pref.oita.jp/site/kenou/,http://ja.wikipedia.org/wiki/%E5%A4%A7%E5%88%86%E7%9C%8C%E5%A4%AE%E9%A3%9B%E8%A1%8C%E5%A0%B4,
324561,99MI,small_airport,Denton Farms Airport,43.755141,-84.808286,845,NA_,US,US-MI,Clare,no,,,MI1,,,99MI
300370,RK1N,heliport,C 135 Heliport,37.623114,126.703641,182,AS,KR,KR-41,,no,RK1N,,RK1N,,,TAC Site 42
332947,NO-0083,small_airport,Skarva Airfield,63.845275,11.344714,,EU,NO,NO-U-A,,no,,,,,,
10926,40MO,closed,Louise's Strip,39.422798,-94.8377,945,NA_,US,US-MO,Weston,no,,,,,,40MO
19614,KD98,small_airport,Romeo State Airport,42.79610062,-82.97499847,739,NA_,US,US-MI,Romeo,no,D98,,D98,"http://www.michigan.gov/aero/0,4533,7-145-61367-277662--,00.html",https://en.wikipedia.org/wiki/Romeo_State_Airport,
307558,PG-0041,small_airport,Kairik Airstrip,-5.44625,143.1698889,7340,OC,PG,PG-EPW,Porgera Mine,no,,,KRK,,,
8244,1CL9,heliport,Sfi-Vernon Heliport,34.00099945,-118.2129974,231,NA_,US,US-CA,Vernon,no,1CL9,,1CL9,,,
41755,UZ-0068,small_airport,Chimkurgan Airport,40.37969971,67.66410065,925,AS,UZ,UZ-JI,Chimkurgan,no,,,,,,
339,SNKD,small_airport,Conceição do Mato Dentro Airport,-19.02029991,-43.43389893,2196,SA,BR,BR-MG,Conceição Do Mato Dentro,no,SNKD,,SNKD,,,
17927,II43,small_airport,C. V. Airport,41.75,-86.19219971,780,NA_,US,US-IN,Granger,no,II43,,II43,,,
310987,ID-0129,small_airport,Ros Bori Airstrip,-1.6586,136.102,67,AS,ID,ID-PA,Ros Bori - Yapen Island,no,,,ROS,,,"WW82, Japen Island"
1838,CYOP,medium_airport,Rainbow Lake Airport,58.49140167,-119.4079971,1759,NA_,CA,CA-AB,Rainbow Lake,yes,CYOP,YOP,,,https://en.wikipedia.org/wiki/Rainbow_Lake_Airport,
26059,WV77,small_airport,Hinton-Alderson Airport,37.67959976,-80.71040344,1520,NA_,US,US-WV,Pence Springs,no,WV77,,WV77,,,
319144,ENUH,heliport,"Oslo Heliport, Ullevaal",59.936215,10.736541,,EU,NO,NO-03,Oslo,no,ENUH,,,,,
15036,8MN0,seaplane_base,Lake Zumbro Seaplane Base,44.20159912,-92.48349762,920,NA_,US,US-MN,Oronoco,no,8MN0,,8MN0,,,
32196,RKNC,closed,Camp Page Airport (A-306),37.883801,127.718002,245,AS,KR,KR-42,Chun Chon City,no,RKNC,QUN,,,,
11131,45NJ,closed,Heliport,40.690399,-74.307899,75,NA_,US,US-NJ,Union,no,,,,,,45NJ
330056,NG-0007,small_airport,Lokoja Airstrip,7.801829,6.582793,320,AF,NG,NG-KO,Lokoja,no,,,,,,
313735,SYDW,small_airport,Dadanawa Airport,2.82555,-59.5242,372,SA,GY,GY-UT,Dadanawa,no,SYDW,,,,,
20497,KMFV,small_airport,Accomack County Airport,37.64690018,-75.76110077,47,NA_,US,US-VA,Melfa,no,KMFV,MFV,MFV,http://www.co.accomack.va.us/departments/airport,https://en.wikipedia.org/wiki/Accomack_County_Airport,Melfa Flight Strip
24334,PAXK,small_airport,Paxson Airport,63.02460098,-145.5010071,2653,NA_,US,US-AK,Paxson,no,PAXK,,PXK,,https://en.wikipedia.org/wiki/Paxson_Airport,
318354,BR-0063,small_airport,Luiz Ribeiro Maia Airport,-5.635585,-63.185491,167,SA,BR,BR-AM,Tapauá,no,SDLR,,AM0030,,,
15119,8OI5,small_airport,Clum Airport,39.88169861,-82.41459656,1115,NA_,US,US-OH,Thornville,no,8OI5,,8OI5,,,
31681,NWWO,small_airport,Edmond Cané Airport,-22.45999908,166.7830048,7,OC,NC,NC-U-A,Île Ouen,no,NWWO,IOU,,,,
11519,4LL4,small_airport,Enjoy Field,40.97579956,-87.99859619,685,NA_,US,US-IL,Chebanse,no,4LL4,,4LL4,,,
38381,YHEC,small_airport,Heck Field Airport,-27.7675,153.339444,,OC,AU,AU-QLD,,no,YHEC,,,,,
45729,26OG,small_airport,Oakridge Ranch Airport,42.463021,-122.734744,1560,NA_,US,US-OR,Eagle Point,no,26OG,,26OG,,,
1839,CYOS,medium_airport,Owen Sound / Billy Bishop Regional Airport,44.59030151,-80.83750153,1007,NA_,CA,CA-ON,Owen Sound,no,CYOS,YOS,,,https://en.wikipedia.org/wiki/Owen_Sound/Billy_Bishop_Regional_Airport,YOS
320025,IT-0392,small_airport,Campo di Volo Montemelino,43.103,12.253,731,EU,IT,IT-55,Magione (PG),no,,,PGMAG,,,"Montemelino,Umbria Volo"
29131,EGER,small_airport,Stronsay Airport,59.15530014,-2.641390085,39,EU,GB,GB-SCT,Stronsay,yes,EGER,SOY,,,,
3001,FVCN,small_airport,Centenary Airport,-16.73410034,31.12199974,4058,AF,ZW,ZW-MC,,no,FVCN,,,,,
27065,YMMI,small_airport,Murrin Murrin Airport,-28.705299,121.89099,1535,OC,AU,AU-WA,Murrin Murrin,no,YMMI,WUI,,,https://en.wikipedia.org/wiki/Murrin_Murrin_Airport,
8751,1XA0,small_airport,Rab Ranch Airport,30.79369926,-97.90119934,1095,NA_,US,US-TX,Andice,no,1XA0,,1XA0,,,
32725,ZWYN,small_airport,Yining Airport,43.955799,81.330299,,AS,CN,CN-65,Yining,yes,ZWYN,YIN,,,https://en.wikipedia.org/wiki/Yining_Airport,
19115,K8A1,small_airport,Guntersville Municipal Joe Starnes Field,34.3993988,-86.27020264,615,NA_,US,US-AL,Guntersville,no,K8A1,,8A1,,,
15919,9OR4,small_airport,King's Airport,45.93370056,-118.447998,950,NA_,US,US-OR,Milton/Freewater,no,9OR4,,9OR4,,,
17170,E81,small_airport,Superior Municipal Airport,33.27780151,-111.1269989,2646,NA_,US,US-AZ,Superior,no,E81,,E81,,,
28595,EDGH,small_airport,Hettstadt Airport,49.79861069,9.836667061,1050,EU,DE,DE-BY,Hettstadt,no,EDGH,,,,,
30150,EYMO,small_airport,Molėtai Airport,55.1128006,25.33639908,650,EU,LT,LT-UT,Molėtai,no,EYMO,,,,,
43910,LBLS,small_airport,Lesnovo Airport,42.6344986,23.64644432,1825,EU,BG,BG-23,Lesnovo,no,LBLS,,,,,
31139,FLCS,small_airport,Chinsali Airport,-10.53299999,32.06700134,4350,AF,ZM,ZM-05,Chinsali,no,FLCS,,,,,
333219,IE-0059,small_airport,Kilbrook Airstrip,53.423,-6.7785,,EU,IE,IE-KE,,no,,,,,,
328005,KR-0693,heliport,Geomdansan Heliport,37.517666,127.249469,,AS,KR,KR-41,Baealmi-dong,no,,,,,,"Geomdansan, Baealmi-dong"
320170,ES-0049,small_airport,Aerodrómo de Sanchidrián,40.89995,-4.609617,2789,EU,ES,ES-AV,Sanchidrián,no,,,,,,
22432,MT35,heliport,St Peter's Community Hospital Heliport,46.58470154,-111.9970016,4115,NA_,US,US-MT,Helena,no,MT35,,MT35,,,
5860,SBAN,medium_airport,Base Aérea Airport,-16.2292,-48.964298,3731,SA,BR,BR-GO,Anápolis,no,SBAN,,GO9001,,http://pt.wikipedia.org/wiki/Base_A%C3%A9rea_de_An%C3%A1polis,
7480,0PA4,small_airport,Ecko Field,40.23759842,-76.72470093,380,NA_,US,US-PA,Hummelstown,no,0PA4,,0PA4,,,
334478,PH-0166,heliport,SM Rosario Helipad,14.40933,120.85583,,AS,PH,PH-CAV,Rosario,no,,,,,,
15686,9CO6,small_airport,D Bar D Airport,39.28129959,-104.572998,6752,NA_,US,US-CO,Elizabeth,no,9CO6,,9CO6,,,
31447,FZRD,small_airport,Kabombo Airport,-7.349999905,28.03300095,1969,AF,CD,CD-KA,Kabombo,no,FZRD,,,,,
42451,GR-0001,small_airport,Arnissa Airport,40.8409569,21.826057,2071,EU,GR,GR-59,Edessa,no,,,,,,
322318,US-0452,small_airport,McBee Field,32.757417,-96.057222,543,NA_,US,US-TX,Wills Point,no,2TS9,,2TS9,,,
25527,VT31,small_airport,Carriers Skypark Airport,44.11119843,-72.44400024,1600,NA_,US,US-VT,Washington,no,VT31,,VT31,,,
334475,US-1333,closed,Rice Army Airfield,34.056144,-114.814081,,NA_,US,US-CA,Rice,no,,,,,,
30309,FXQN,small_airport,Qacha's Nek Airport,-30.11170006,28.6718998,6100,AF,LS,LS-H,Qacha's Nek,no,FXQN,UNE,,,,
324267,KR-0170,heliport,Tapyeol-ri Helipad,38.399839,128.348492,,AS,KR,KR-42,Tapyeol-ri,no,,,,,,Tapyeol-ri
309717,PRNO,small_airport,Siocon Airport,7.710481328,122.1611881,,AS,PH,PH-ZAN,,no,PRNO,XSO,,,,
12512,5MO3,small_airport,Bil-Mitch Airport,36.94060135,-93.95739746,1342,NA_,US,US-MO,Monett,no,5MO3,,5MO3,,,
38627,YVAF,small_airport,Valley Field Airport,-41.81000137,147.2920074,,OC,AU,AU-TAS,,no,YVAF,,,,,
514,SSZJ,small_airport,Fazenda Torrão de Ouro Airport,-18.1807003,-54.50180054,899,SA,BR,BR-MS,Pedro Gomes,no,SSZJ,,SSZJ,,,
328680,KR-1021,heliport,Haesung 2 Building Heliport,37.506781,127.058035,,AS,KR,KR-11,Seoul,no,,,,,,Haesung 2 Building
328292,KR-0832,heliport,Korea Insurance Development Institute (KIDI) Heliport,37.521558,126.92598,,AS,KR,KR-11,Seoul,no,,,,,,"Korea Insurance Development Institute, KIDI"
18195,IS33,small_airport,Willhoit Airport,39.04560089,-89.84069824,614,NA_,US,US-IL,Staunton,no,IS33,,IS33,,,
3793,KPTK,medium_airport,Oakland County International Airport,42.66550064,-83.42009735,980,NA_,US,US-MI,Pontiac,no,KPTK,PTK,PTK,https://www.oakgov.com/aviation/ocia,https://en.wikipedia.org/wiki/Oakland_County_International_Airport,"Pontiac Municipal Airport, Oakland-Pontiac Airport"
38133,SWWI,small_airport,Fazenda Fortaleza Airport,-15.67333317,-53.57833481,1995,SA,BR,BR-MT,General Carneiro,no,SWWI,,,,,
31245,FVLG,small_airport,Longuiel Airport,-17,29.63299942,4200,AF,ZW,ZW-MW,Longuiel,no,FVLG,,,,,
9733,2PS7,heliport,Merck Sharp & Dohme Heliport,40.21680069,-75.16629791,315,NA_,US,US-PA,Lansdale,no,2PS7,,2PS7,,,
24826,TE18,heliport,Mother Frances Hospital Heliport,32.50930023,-95.28990173,520,NA_,US,US-TX,Tyler,no,TE18,,TE18,,,
25645,WA51,heliport,Samaritan Hospital Rms Heliport,47.12860107,-119.2639999,1130,NA_,US,US-WA,Moses Lake,no,WA51,,WA51,,,
42736,SWQQ,small_airport,Fazenda Fundão Alegre Airport,-18.62805557,-54.10388947,1391,SA,BR,BR-MS,Camapuã,no,SWQQ,,,,,
9567,2MO2,small_airport,Northwood Airport,39.46419907,-94.30799866,1000,NA_,US,US-MO,Holt,no,2MO2,,2MO2,,,
44379,RU-0127,closed,Bryansk Airport,53.27000046,34.3370018,,EU,RU,RU-BRY,Bryansk,no,,,,,,Аэропорт Брянск
327087,US-0846,heliport,Northeast Methodist Hospital Heliport,29.553092,-98.350527,850,NA_,US,US-TX,Live Oak,no,XS10,,XS10,,,
319372,MX-0205,small_airport,Ramon Lopez Velarde Airport,21.75929,-103.30188,5635,NA_,MX,MX-ZAC,Tlaltenango,no,,,RLY,,,
28232,CAW6,seaplane_base,Fort Ware Seaplane Base,57.4236,-125.6442,2480,NA_,CA,CA-BC,,no,CAW6,,CAW6,,https://en.wikipedia.org/wiki/Fort_Ware_Water_Aerodrome,AW6
326718,PT-0095,small_airport,Pista de Reguengos de Monsaraz,38.383702,-7.55162,,EU,PT,PT-07,Reguengos de Monsaraz,no,,,,,,
2195,EDAZ,small_airport,Schönhagen Airport,52.203609,13.156389,152,EU,DE,DE-BR,Trebbin,no,EDAZ,,,http://www.flugplatz-schoenhagen.aero/,http://de.wikipedia.org/wiki/Flugplatz_Sch%C3%B6nhagen,
323777,JP-0010,heliport,Aidomari (Oshima) Heliport,41.49771,139.34505,,AS,JP,JP-01,Aidomari,no,,,,,,"Aidomari, Oshima, Lighthouse"
21631,LL98,small_airport,John W Meils Restricted Landing Area,40.9435997,-89.10829926,705,NA_,US,US-IL,Rutland,no,LL98,,LL98,,,
11975,53OK,small_airport,Thompson Private Airport,35.25009918,-97.76699829,1280,NA_,US,US-OK,Tuttle,no,53OK,,53OK,,,
38835,AR-0160,small_airport,Firmat Aeroclub Airport,-33.4289,-61.5108,344,SA,AR,AR-S,Firmat,no,,,FAE,,,
13968,78GA,small_airport,C&R Farm Airport,33.50429916,-85.01719666,1013,NA_,US,US-GA,Carrollton,no,78GA,,78GA,,,
8745,1WI8,small_airport,Jorgensen - Stoller Airport,44.63579941,-87.44020081,690,NA_,US,US-WI,Algoma,no,1WI8,,1WI8,,,
6872,06I,seaplane_base,Patoka Reservoir Landing Area Seaplane Base,38.4333992,-86.69110107,536,NA_,US,US-IN,French Lick,no,06I,,06I,,,
4827,MUBR,small_airport,Las Brujas Airport,22.62129974,-79.14720154,13,NA_,CU,CU-07,Cayo Santa Maria,no,MUBR,BWW,,,https://en.wikipedia.org/wiki/Las_Brujas_Airport_(Cuba),
14889,8CL8,heliport,United Ca Bank Data Processing Ops Heliport,34.06969833,-118.2919998,367,NA_,US,US-CA,Los Angeles,no,8CL8,,8CL8,,,
35404,AR-0010,small_airport,General Villegas Airport,-35,-63,383,SA,AR,AR-B,General Villegas,no,,VGS,GAS,,,
25629,WA32,closed,Stonehedge Heliport,46.974998,-122.7897,210,NA_,US,US-WA,Olympia,no,,,,,,WA32
3763,KPAE,medium_airport,Snohomish County (Paine Field) Airport,47.90629959,-122.2819977,606,NA_,US,US-WA,Everett,no,KPAE,PAE,PAE,,https://en.wikipedia.org/wiki/Paine_Field,
334994,GB-0869,small_airport,Hermitage Airstrip,50.86621,-2.48844,,EU,GB,GB-ENG,Sherborne,no,,,,,,
45483,2MY3,heliport,Cambridge Medical Center Heliport,45.56545,-93.231361,980,NA_,US,US-MN,Cambridge,no,2MY3,,2MY3,,,
43658,RU-0076,closed,Lepsari Airfield,60.138401,30.886499,98,EU,RU,RU-LEN,,no,,,ZA77,,,Аэродром Лепсари
16105,AK1,small_airport,Butte Municipal Airport,61.53030014,-149.0180054,64,NA_,US,US-AK,Palmer,no,AK1,,AK1,,,
37927,SWJM,small_airport,Fazenda Bom Jesus Airport,-12.9663887,-46.5652771,2067,SA,BR,BR-TO,Novo Alegre,no,SWJM,,,,,
301616,mdma,small_airport,Magdalena Cuya Airport,18.501933,-68.799099,325,NA_,DO,DO-12,La Romana,no,MDMA,,,,,
3803,RK18,small_airport,G 233 Airport,38.083162,127.269037,340,AS,KR,KR-41,Munam,no,RK18,,RK18,,,
329188,MX-0847,heliport,Torre Polanco Heliport,19.43299,-99.181508,7799,NA_,MX,MX-DIF,Miguel Hidalgo,no,,,HPL,,,
29171,EGPG,small_airport,Cumbernauld Airport,55.97470093,-3.97555995,350,EU,GB,GB-SCT,Cumbernauld,no,EGPG,,,,,
315902,LOKR,small_airport,St. Donat Mairist,46.741389,14.406111,1759,EU,AT,AT-2,,no,LOKR,,,,,
25702,WI06,heliport,Aurora Medical Center Heliport,44.12720108,-87.61560059,596,NA_,US,US-WI,Two Rivers,no,WI06,,WI06,,,
42645,KE-0002,small_airport,Nzoia Airport,0.133332998,34.08333206,3770,AF,KE,KE-900,Nzoia,no,,,,,,
39082,SUCM,small_airport,Carmelo  Airport,-33.96611,-58.325279,42,SA,UY,UY-CO,Carmelo,no,SUCM,,,,,
35010,RU-9345,medium_airport,Krechevitsy Air Base,58.625,31.38500023,85,EU,RU,RU-NGR,Novgorod,no,ULLK,,,,https://en.wikipedia.org/wiki/Krechevitsy_Airport,Аэродром Кречевицы
43867,UHWP,small_airport,Plastun Airport,44.81499863,136.2920074,66,AS,RU,RU-PRI,Plastun,yes,UHWP,TLY,,,,Аэропорт Пластун
334327,US-1282,small_airport,Peavine Airport,45.724117,-117.077375,4007,NA_,US,US-OR,Enterprise,no,,,O62,,,
31254,FVNY,small_airport,Nyanyadzi Airport,-19.7329998,32.43299866,1850,AF,ZW,ZW-MA,Nyanyadzi,no,FVNY,,,,,
2569,ENBO,large_airport,Bodø Airport,67.26920319,14.36530018,42,EU,NO,NO-18,Bodø,yes,ENBO,BOO,,http://www.avinor.no/en/airport/bodo/frontpage,https://en.wikipedia.org/wiki/Bod%C3%B8_Airport,"Bodø Air Force Base, Bodø Main Air Station"
27068,YMND,small_airport,Maitland Airport,-32.701265,151.492912,85,OC,AU,AU-NSW,,no,YMND,MTL,,http://rnac.com.au,,
19572,KCWF,small_airport,Chennault International Airport,30.2105999,-93.14320374,17,NA_,US,US-LA,Lake Charles,no,KCWF,CWF,CWF,http://www.chennault.org/,https://en.wikipedia.org/wiki/Chennault_International_Airport,Chennault Industrial Airpark
334587,JP-0222,heliport,Marunouchi My Plaza Helipad,35.67897,139.76225,,AS,JP,JP-13,"Chiyoda, Tokyo",no,,,,,,
321447,MZ-0043,small_airport,Chemba Airport,-17.167836,34.882624,,AF,MZ,MZ-S,Chemba,no,,,,,,
315964,EDSO,small_airport,Gruibingen-Nortel Airfield,48.6212,9.6557,2318,EU,DE,DE-BW,Göppingen,no,EDSO,,,http://www.aeroclub-gs.de/flugplatz.html,,
4665,MHTE,medium_airport,Tela Airport,15.7759,-87.4758,7,NA_,HN,HN-AT,Tela,no,MHTE,TEA,,,https://en.wikipedia.org/wiki/Tela_Airport,
160,SDEO,small_airport,Fazenda Entre Rios Airport,-21.87859917,-48.65940094,1709,SA,BR,BR-SP,Ibitinga,no,SDEO,,SDEO,,,
14756,87IS,closed,Seigfried Halfpap Airport,39.8862,-91.320702,550,NA_,US,US-IL,Quincy,no,,,,,,87IS
18661,K37V,small_airport,Arapahoe Municipal Airport,40.33950043,-99.90650177,2270,NA_,US,US-NE,Arapahoe,no,,AHF,37V,,https://en.wikipedia.org/wiki/Arapahoe_Municipal_Airport,
30699,GQNE,small_airport,Abbaye Airport,16.63331413,-14.20000076,66,AF,MR,MR-05,Boghe,no,GQNE,BGH,,,https://en.wikipedia.org/wiki/Abbaye_Airport,
31390,FZGI,small_airport,Yalingimba Airport,2.282999992,22.85000038,1427,AF,CD,CD-EQ,Yalingimba,no,FZGI,,,,,
7611,0WI3,heliport,Aurora Lakeland Medical Center Heliport,42.6617012,-88.49680328,1040,NA_,US,US-WI,Elkhorn,no,0WI3,,0WI3,,,
320403,CZ-0116,small_airport,Dynín Airstrip,49.1283411,14.6334406,,EU,CZ,CZ-U-A,Dynín u Třeboně,no,,,,,,
14348,7P5,small_airport,Piso Airport,45.06529999,-88.42649841,891,NA_,US,US-WI,Suring,no,7P5,,7P5,,,
31365,FZEO,small_airport,Beongo Airport,1.01699996,20.60000038,1279,AF,CD,CD-EQ,Beongo,no,FZEO,,,,,
334695,US-1349,closed,Transwestern Pipeline Airfield 7,34.320188,-106.267319,6840,NA_,US,US-NM,Mountainair,no,,,,,,77E
11091,44NJ,seaplane_base,Highlands Seaplane Base,40.3667984,-74.03289795,,NA_,US,US-NJ,Rumson,no,44NJ,,44NJ,,,
10691,3NY3,small_airport,De Ronda Airport,42.85979843,-74.82430267,1650,NA_,US,US-NY,Springfield,no,3NY3,,3NY3,,,
24037,PA69,closed,Vogelsong Airport,40.1287,-76.969398,590,NA_,US,US-PA,Dillsburg,no,,,,,,PA69
32707,HTMI,small_airport,Masasi Airport,-10.7329998,38.76699829,1700,AF,TZ,TZ-17,Masasi,no,HTMI,XMI,,,,
28709,EDSZ,small_airport,Rottweil-Zepfenhahn Airport,48.18638992,8.721111298,2444,EU,DE,DE-BW,Rottweil,no,EDSZ,,,,,
320683,CRF5,small_airport,Saskatoon/Richter Field Airport,52.2803,-106.6828,1700,NA_,CA,CA-SK,Saskatoon,no,CRF5,,CRF5,,https://en.wikipedia.org/wiki/Saskatoon/Richter_Field_Aerodrome,
324643,0CN2,small_airport,Sutter Butte Dusters Airport,39.228622,-121.688265,67,NA_,US,US-CA,Live Oak,no,0CN2,,0CN2,,,
31589,HKKU,small_airport,Kitui Airport,-1.372789979,37.97809982,3790,AF,KE,KE-400,Kitui,no,HKKU,,,,,6575
329929,US-1043,closed,Speedway Airport,39.799433,-86.356332,870,NA_,US,US-IN,Indianapolis,no,,,,,,3SY
5268,OPPG,medium_airport,Panjgur Airport,26.9545002,64.13249969,3289,AS,PK,PK-BA,Panjgur,yes,OPPG,PJG,,,https://en.wikipedia.org/wiki/Panjgur_Airport,
41266,FATI,small_airport,Thabazimbi Airport,-24.57608503,27.41968632,3225,AF,ZA,ZA-NP,Thabazimbi,no,FATI,,,,,
310075,DE-0101,small_airport,Hellenhagen Airfield,52.02624,9.5628,625,EU,DE,DE-NI,Bremke,no,,,,http://www.flugsportclub.com/index.php/der-verein/unser-flugplatz.html,,
10159,35OK,closed,Schumacher Field,35.5,-99.035598,1595,NA_,US,US-OK,Clinton,no,,,,,,35OK
37387,SSAE,small_airport,Arroio Grande Airport,-32.22416687,-53.0672226,161,SA,BR,BR-RS,Arroio Grande,no,SSAE,,,,,
39951,CA-0305,closed,Raspberry Airport,56.04999924,-124.2166672,,NA_,CA,CA-BC,,no,,,,,,
320644,ES-0084,small_airport,Aeródromo forestal de Enguera,38.94316667,-0.76915,1903,EU,ES,ES-V,Enguera,no,,,,,,
38600,YTEC,small_airport,Tenneco Station Three Airport,-30.33670044,139.6649933,,OC,AU,AU-SA,,no,YTEC,,,,,
5938,SBMG,medium_airport,Regional de Maringá - Sílvio Name Júnior Airport,-23.47606,-52.016187,1788,SA,BR,BR-PR,Maringá,yes,SBMG,MGF,PR0004,,https://en.wikipedia.org/wiki/Maring%C3%A1_Domestic_Airport,
27127,YRNG,small_airport,Ramingining Airport,-12.35639954,134.897995,206,OC,AU,AU-NT,,yes,YRNG,RAM,,,https://en.wikipedia.org/wiki/Ramingining_Airport,
46423,CU-0055,small_airport,Las Crisis Airport,21.65316035,-79.1432333,13,NA_,CU,CU-07,,no,,,,,,
30561,FAWO,small_airport,Willowmore Airport,-33.26330185,23.49060059,2608,AF,ZA,ZA-EC,Willowmore,no,FAWO,,,,,
317001,IT-0172,small_airport,Aviosuperficie Stella,44.95094,11.62722,6,EU,IT,IT-34,Fiesso Umbertiano (RO),no,,,ROFIE,,,Stella
321320,IE-0025,small_airport,The Forge Airstrip,52.81052,-8.13732,,EU,IE,IE-TA,,no,,,,,,
10684,3NK9,heliport,Arnot Ogden Hospital Heliport,42.10089874,-76.82550049,909,NA_,US,US-NY,Elmira,no,3NK9,,3NK9,,,
14275,7NC8,small_airport,Fish Airpark,35.53490067,-78.6964035,280,NA_,US,US-NC,Angier,no,7NC8,,7NC8,,,
12162,58CL,small_airport,Borrego Air Ranch Airport,33.19169998,-116.276001,575,NA_,US,US-CA,Borrego Springs,no,58CL,,58CL,,,
23978,PA07,closed,Bilinski Airport,42.0145,-80.1201,1080,NA_,US,US-PA,Middleboro,no,,,,,,PA07
8250,1CO5,small_airport,Melon Field,38.01530075,-103.6989975,4260,NA_,US,US-CO,Rocky Ford,no,1CO5,,1CO5,,,
35332,SA46,small_airport,Fiambala Airport,-27.6422,-67.624702,5029,SA,AR,AR-K,Fiambala,no,SA46,,2380,,,SA46
15658,9C0,seaplane_base,Peninsula Point Pullout Seaplane Base,55.38470078,-131.7380066,,NA_,US,US-AK,Ketchikan,no,9C0,,9C0,,,
320875,CFP2,seaplane_base,Fox Point Seaplane Base,45.273701,-79.012101,1035,NA_,CA,CA-ON,Dwight,no,CFP2,,CFP2,,https://en.wikipedia.org/wiki/Dwight_(Fox_Point)_Water_Aerodrome,
37507,SSIE,small_airport,Teruel Ipanema Estância Airport,-20.59944344,-54.60250092,1732,SA,BR,BR-MS,Campo Grande,no,SSIE,,,,,
9729,2PS3,small_airport,Mathna Airport,40.01679993,-77.04139709,490,NA_,US,US-PA,York Springs,no,2PS3,,2PS3,,,
31636,HSZA,small_airport,Zalingei Airport,12.9437,23.5631,2953,AF,SD,SD-12,Zalingei,no,HSZA,ZLX,,,https://en.wikipedia.org/wiki/Zalingei_Airport,Zalengei Airport
13591,6VA7,closed,Northampton Accomack Memorial Hospital Heliport,37.47565,-75.863149,40,NA_,US,US-VA,Nassawadox,no,,,,,,6VA7
8844,21MI,heliport,Adams Heliport,42.57229996,-83.39099884,970,NA_,US,US-MI,Orchard Lake,no,21MI,,21MI,,,
27937,YRWH,small_airport,Ravensworth Airport,-34.63330078,144.2830048,,OC,AU,AU-NSW,,no,YRWH,,,,,
20403,KM01,small_airport,General Dewitt Spain Airport,35.20069885,-90.05400085,225,NA_,US,US-TN,Memphis,no,KM01,,M01,,,
14378,7S4,small_airport,Wisdom Airport,45.59159851,-113.4589996,6133,NA_,US,US-MT,Wisdom,no,7S4,,7S4,,,
40746,SK-185,small_airport,Tamaca Airport,9.916667,-73.231389,348,SA,CO,CO-CES,Codazzi,no,,,COZ,,,
5199,OITK,small_airport,Khoy Airport,38.42750168,44.97359848,3981,AS,IR,IR-02,Khoy,no,OITK,KHY,,,https://en.wikipedia.org/wiki/Khoy_Airport,
3760,KOTM,medium_airport,Ottumwa Regional Airport,41.10660172,-92.44789886,845,NA_,US,US-IA,Ottumwa,no,KOTM,OTM,OTM,,,
3334,VI76,small_airport,Band Tal Airport,26.00009918,78.26180267,790,AS,IN,IN-MP,,no,VI76,,VI76,,,
39867,CA-0221,closed,Malloch Dome Airport,78.21666718,-101.0500031,,NA_,CA,CA-NU,,no,,,,,,
18353,K0C4,small_airport,Pender Municipal Airport,42.11389923,-96.72889709,1345,NA_,US,US-NE,Pender,no,K0C4,,0C4,,,
20693,KO51,closed,Laverne Municipal Airport,36.744498,-99.908699,2112,NA_,US,US-OK,Laverne,no,,,,,,"OK67, O51, 4OK8"
17009,CT52,small_airport,Flying Ridge Airstrip,41.36819839,-73.29119873,610,NA_,US,US-CT,Newtown,no,CT52,,CT52,,,
23080,NJ35,heliport,Chem-Fleur Helistop,40.70199966,-74.13240051,14,NA_,US,US-NJ,Newark,no,NJ35,,NJ35,,,
42088,MHLI,small_airport,Talanguita Airport,14.48750019,-87.17972565,760,NA_,HN,HN-FM,,no,MHLI,,,,,
24138,PN29,closed,Lazy J Heliport,41.295898,-75.594101,1600,NA_,US,US-PA,Moscow,no,,,,,,PN29
16090,A88,closed,Gunsight Mountain Airport,61.9006,-147.316632,2950,NA_,US,US-AK,Gunsight Mountain Lodge,no,,,,,,A88
28458,CAP5,seaplane_base,Victoria Airport,48.65389205,-123.4504509,,NA_,CA,CA-BC,,no,CAP5,,CAP5,,,
322495,FK-0032,small_airport,Port Edgar Airport,-52.090803,-60.282682,65,SA,FK,FK-U-A,Port Edgar,no,,,,,,
21267,KU62,small_airport,Mackay Airport,43.90409851,-113.6009979,5892,NA_,US,US-ID,Mackay,no,KU62,,U62,,,
5393,PAOM,medium_airport,Nome Airport,64.5121994,-165.4450073,37,NA_,US,US-AK,Nome,yes,PAOM,OME,OME,,https://en.wikipedia.org/wiki/Nome_Airport,
43195,HK-0004,heliport,Ping Chau Helipad,22.54333305,114.4305573,,AS,HK,HK-U-A,Ping Chau Island,no,,,,,,
18862,K4Y4,small_airport,Lakes of the North Airport,44.91249847,-84.87640381,1286,NA_,US,US-MI,Gaylord,no,K4Y4,,4Y4,,,
310887,ID-0114,small_airport,Padang Pagai Airstrip,-2.8574,100.2145,141,AS,ID,ID-SB,Pagai-Selatan Island,no,,,,,,WW48
298660,CA-0489,closed,Willowdale Airfield,43.76522101,-79.42374945,,NA_,CA,CA-ON,Toronto,no,,,,,https://en.wikipedia.org/wiki/Willowdale_Airfield,
8461,1MN1,closed,Beyer Airport,45.9733,-96.564201,1000,NA_,US,US-MN,Tenney,no,,,,,,1MN1
8033,17AZ,closed,Gilbert Emergency Hospital Heliport,33.314072,-111.687382,1350,NA_,US,US-AZ,Gilbert,no,,,,,,17AZ
6466,UIUU,medium_airport,Ulan-Ude Airport (Mukhino),51.80780029,107.4380035,1690,AS,RU,RU-BU,Ulan Ude,yes,UIUU,UUD,,,https://en.wikipedia.org/wiki/Ulan-Ude_Airport,Mukhino Airport
11094,44OI,heliport,Perry Nuclear Power Plant Heliport,41.7947998,-81.14510345,623,NA_,US,US-OH,Painesville,no,44OI,,44OI,,,
313165,AA38,heliport,Nikaitchuq Operations Center Heliport,70.4824806,-149.8532333,20,NA_,US,US-AK,Kuparuk,no,AA38,,AA38,,,
5308,OTBD,medium_airport,Doha International Airport,25.261101,51.565102,35,AS,QA,QA-DA,Doha,no,OTBD,DIA,,http://www.dohaairport.com/,https://en.wikipedia.org/wiki/Doha_International_Airport,مطار الدوحة الدولى
22299,MO95,closed,Hawkins Airport,39.4417,-93.662201,720,NA_,US,US-MO,Carrollton,no,,,,,,MO95
316492,GB-0227,small_airport,Low Hill Farm Airstrip,53.534129,-0.6848,,EU,GB,GB-ENG,Messingham,no,,,,,,"Talybont, North Moor"
326939,KR-0258,heliport,Mukho Port Heliport,37.540345,129.115255,,AS,KR,KR-42,Mukho,no,,,,,,Mukho
29586,NA-0041,small_airport,Maltahoehe 9 Kal Landing Site,-24.51079941,17.18829918,4439,AF,NA_,NA-HA,Maltahoehe,no,,,,,,
42794,SDDU,closed,Fazenda Santa Carolina,-22.13100052,-48.31930161,2302,SA,BR,BR-SP,Dourado,no,,,SDDU,,,
333965,US-1239,heliport,Rogersville Remote Fuel Site Heliport,37.117617,-93.029662,1475,NA_,US,US-MO,Rogersville,no,85MO,,85MO,,,
7825,13KY,small_airport,Miles Airport,37.70560074,-87.15609741,407,NA_,US,US-KY,Owensboro,no,13KY,,13KY,,,
21808,MA65,seaplane_base,Island Air Service Seaplane Base,41.77180099,-70.87310028,53,NA_,US,US-MA,Rochester,no,MA65,,MA65,,,
9048,25FD,closed,Sacred Heart Hospital of Pensacola Heliport,30.384399,-86.397697,16,NA_,US,US-FL,Destin,no,,,,,,25FD
16782,CL63,heliport,Castaic Dam Heliport,34.51720047,-118.598999,1520,NA_,US,US-CA,Castaic,no,CL63,,CL63,,,
19999,KGYR,small_airport,Phoenix Goodyear Airport,33.42250061,-112.3759995,968,NA_,US,US-AZ,Goodyear,no,KGYR,GYR,GYR,http://goodyearairport.com/,https://en.wikipedia.org/wiki/Phoenix_Goodyear_Airport,NAS Litchfield Park
25712,WI18,small_airport,Gateway Airport,45.13330078,-91.45020294,1021,NA_,US,US-WI,Bloomer,no,WI18,,WI18,,,
2564,ENAL,medium_airport,Ålesund Airport,62.5625,6.119699955,69,EU,NO,NO-15,Ålesund,yes,ENAL,AES,,http://www.avinor.no/lufthavn/alesund,https://en.wikipedia.org/wiki/%C3%85lesund_Airport%2C_Vigra,Vigra
317785,IT-0212,small_airport,"Campo di Volo ""Air Patria""",40.926943,14.061944,100,EU,IT,IT-72,Giuliano (NA),no,,,NAPAT,,,Lago Patria
6073,SEQU,closed,Mariscal Sucre International Airport,-0.141144007,-78.48819733,9228,SA,EC,EC-P,Quito,yes,SEQU,,,http://www.aeropuertoquito.aero/,https://en.wikipedia.org/wiki/Old_Mariscal_Sucre_International_Airport,"Quito, Ecuador, Dangerous, Closed, Mountains, Volcano, America, Middle of the world"
1750,CYGT,medium_airport,Igloolik Airport,69.36470032,-81.81610107,174,NA_,CA,CA-NU,Igloolik,yes,CYGT,YGT,,,https://en.wikipedia.org/wiki/Igloolik_Airport,
43113,LSXP,heliport,Pfaffnau Heliport,47.23513031,7.910009861,,EU,CH,CH-LU,Pfaffnau,no,LSXP,,,,,
334558,JP-0193,heliport,Otemachi Financial City Grand Cube Helipad,35.68829,139.76443,,AS,JP,JP-13,"Chiyoda, Tokyo",no,,,,,,
39539,SLLZ,small_airport,San Lorenzo Airport,-15.38333321,-65.75,825,SA,BO,BO-B,Moxos,no,SLLZ,,,,,
310695,ID-0104,small_airport,Nanga Merakai Airstrip,0.7024,111.5225,112,AS,ID,ID-KB,Nanga Merakai,no,,,MER,,,WW52
317959,MX-0130,small_airport,Terminal Airport,24.6862,-101.42491,6200,NA_,MX,MX-ZAC,Mazapil,no,,,TEI,,,"Mazapil, Terminal de Providencia"
22691,N86,small_airport,Spanish Springs Airport,39.66659927,-119.7229996,4600,NA_,US,US-NV,Reno,no,N86,,N86,,https://en.wikipedia.org/wiki/Spanish_Springs_Airport,
15081,8NE7,small_airport,Smith Airport,40.09999847,-99.00039673,1948,NA_,US,US-NE,Franklin,no,8NE7,,8NE7,,,
11055,43TS,closed,Fraser Farm Airport,32.5662,-95.4683,570,NA_,US,US-TX,Lindale,no,,,,,,43TS
28941,LFNE,small_airport,Aérodrome d'Eyguières,43.658298,5.01361,246,EU,FR,FR-PAC,,no,LFNE,,,,,
325760,US-0776,small_airport,Itll Do Airfield,27.990591,-97.894114,153,NA_,US,US-TX,Sandia,no,1XS0,,1XS0,,,
24564,SD89,small_airport,Priebe Landing Strip,43.77059937,-99.20749664,1628,NA_,US,US-SD,Pukwana,no,SD89,,SD89,,,
323009,RK51,heliport,G 532 Airport,36.541607,127.285833,92,AS,KR,KR-44,Sejong,no,RK51,,RK51,,,Yeongi
6152,SKPQ,medium_airport,German Olano Air Base,5.48361,-74.6574,566,SA,CO,CO-CUN,La Dorada,no,SKPQ,PAL,PQE,,https://en.wikipedia.org/wiki/Captain_Germ%C3%A1n_Olano_Moreno_Air_Base,Palanquero Airport
318670,TZ-0108,small_airport,Murungu Airport,-4.185382,31.293522,3300,AF,TZ,TZ-08,Murungu,no,,,,,,
317881,CZ-0105,small_airport,Rohozec,49.9819444,15.3927778,679,EU,CZ,CZ-ST,,no,,,,http://www.avzo-nd.cz,,
17151,PADG,small_airport,Red Dog Airport,68.03209686,-162.8990021,969,NA_,US,US-AK,Red Dog,no,PADG,RDB,DGG,,https://en.wikipedia.org/wiki/Red_Dog_Airport,"PARD, AED"
28221,CJK8,seaplane_base,Flin Flon/Channing Seaplane Base,54.746415,-101.828,957,NA_,CA,CA-MB,Flin Flon,no,CJK8,,CJK8,,https://en.wikipedia.org/wiki/Flin_Flon/Channing_Water_Aerodrome,JK8
17509,GA35,small_airport,Cypress Lakes Airport,32.15750122,-81.396698,30,NA_,US,US-GA,Savannah,no,GA35,,GA35,,,
43130,NO-0005,closed,Lindøye Seaplane Base,59.89096069,10.71827888,,EU,NO,NO-03,Oslo,no,,,,,https://en.wikipedia.org/wiki/Lind%C3%B8ya,
26772,WAMR,medium_airport,Pitu Airport,2.04598999,128.3249969,49,AS,ID,ID-MU,Gotalalamo-Morotai Island,no,WAMR,OTI,,,https://en.wikipedia.org/wiki/Pitu_Airport,
45586,SDVN,small_airport,Fazenda Santíssima Trindade Airport,-23.286944,-54.841111,1299,SA,BR,BR-MS,Amambaí,no,SDVN,,,,,
320360,LYPN,small_airport,Paracín,43.8663889,21.4869444,144,EU,RS,RS-U-A,,no,LYPN,,,,,Davidovic
24998,TN84,heliport,Mc Gavock Heliport,36.20840073,-86.67919922,525,NA_,US,US-TN,Nashville,no,TN84,,TN84,,,
433,SSAY,small_airport,Sítio Pouso do Aviador Airport,-20.4885006,-54.48289871,1946,SA,BR,BR-MS,Campo Grande,no,SSAY,,SSAY,,,
46634,CA-0451,small_airport,Prichard Airstrip,50.65947308,-119.7937202,,NA_,CA,CA-BC,Pritchard,no,,,,,,
25848,WN53,small_airport,Frontier Airpark,48.11040115,-122.0619965,480,NA_,US,US-WA,Lake Stevens,no,WN53,,WN53,,,
39600,SPLG,small_airport,Lagarto Nuevo Airport,-12.64159966,-69.83750153,763,SA,PE,PE-MDD,Lagarto,no,SPLG,,,,,
15689,9F1,small_airport,Valley Mills Municipal Airport,31.62100029,-97.42949677,751,NA_,US,US-TX,Valley Mills,no,9F1,,9F1,,,
570,SWOG,small_airport,Fazenda Itaipu Airport,-13.7525,-56.96111,1470,SA,BR,BR-MT,São José Do Rio Claro,no,SWOG,,SWOG,,,
44954,AZ-0013,medium_airport,Sital Chay Airport,40.80731292,49.43148136,,AS,AZ,AZ-XIZ,,no,,,,,,
38102,SWUK,small_airport,Uapuí Cachoeira Airport,1.216388941,-69.20055389,249,SA,BR,BR-AM,São Gabriel Da Cachoeira,no,SWUK,,,,,
5233,OMAS,small_airport,Das Island Airport,25.14620018,52.87369919,12,AS,AE,AE-AZ,Das Island,no,OMAS,,,,,
333095,VIF,heliport,Vieste Airport,41.883317,16.166667,14,EU,IT,IT-75,Vieste,no,,VIF,,,,
328318,US-0899,closed,Sellers Airport,41.513921,-88.937579,670,NA_,US,US-IN,Triumph,no,,,,,,5LL4
323934,MX-0481,small_airport,Rancho Santa Anita Airport,29.673203,-105.280751,3901,NA_,MX,MX-CHH,Coyame,no,,,RTA,,,
11401,4F1,small_airport,Westport Airport,36.22230148,-96.34609985,900,NA_,US,US-OK,Westport,no,4F1,,4F1,,,
21236,KTVY,small_airport,Bolinder Field Tooele Valley Airport,40.61230087,-112.3509979,4322,NA_,US,US-UT,Tooele,no,KTVY,,TVY,,,
5539,RJBH,heliport,Hiroshima Heliport,34.371451,132.417666,15,AS,JP,JP-34,Hiroshima,no,RJBH,HIW,,,https://en.wikipedia.org/wiki/Hiroshima-Nishi_Airport,"hiroshimanishi, hiroshima-nishi, hiroshima heliport"
44900,ULKO,closed,Oktyabrskiy Airport,61.078999,43.199001,,EU,RU,RU-ARK,Oktyabrskiy,no,ULKO,,,,,"Oktyabrsky Airport, Аэропорт Октябрьский"
324720,TL-0002,closed,Ahi Ru Airfield,-8.670092,127.022542,,AS,TL,TL-LA,Lori,no,,,,,,"Ahi Ru, Lori"
6939,07ME,heliport,Westbrook Heliport,43.73830032,-70.33920288,250,NA_,US,US-ME,Westbrook,no,07ME,,07ME,,,
1734,CYFJ,medium_airport,La Macaza / Mont-Tremblant International Inc Airport,46.409401,-74.779999,827,NA_,CA,CA-QC,Rivière Rouge,yes,CYFJ,YTM,,http://www.mtia.ca/,https://en.wikipedia.org/wiki/Rivi%C3%A8re_Rouge/Mont-Tremblant_International_Inc_Airport,"YFJ, CYTM"
10156,35NY,small_airport,Ciszak Airport,42.51259995,-78.73529816,1397,NA_,US,US-NY,Springville,no,35NY,,35NY,,,
30331,SLRY,small_airport,Reyes Airport,-14.3044,-67.353401,935,SA,BO,BO-B,Reyes,yes,SLRY,REY,,,https://en.wikipedia.org/wiki/Reyes_Airport,
21511,LA44,heliport,Calpine Heliport,30.2307663,-90.06401825,13,NA_,US,US-LA,St Gabriel,no,LA44,,LA44,,,
15639,9A2,small_airport,Powell STOLport,36.04449844,-84.00440216,992,NA_,US,US-TN,Knoxville,no,9A2,,9A2,,,
4339,LIMB,small_airport,Milano-Bresso Airfield,45.542198,9.20333,484,EU,IT,IT-25,Milano,no,LIMB,,MI08,http://www.aeroclubmilano.it,https://en.wikipedia.org/wiki/Bresso_Airport,"Bresso, Aeroclub Milano"
321475,ES-0175,small_airport,Aeródromo Naturmaz,42.9814153,-9.0043778,960,EU,ES,ES-GA,Fervenza,no,,,,http://www.naturmaz.com/es/actividades/aire/ultraligeros/actividades/?sec=actividades-ultraligeros,,
333870,AU-0128,small_airport,Donydji Airport,-12.888913,135.466661,330,OC,AU,AU-NT,East Arnhem,no,,,,,,
6571,00WA,small_airport,Howell Airport,47.17839813,-122.7720032,150,NA_,US,US-WA,Longbranch,no,00WA,,00WA,,,
14562,82FD,heliport,Atc Heliport,26.98870087,-80.09279633,6,NA_,US,US-FL,Jupiter,no,82FD,,82FD,,,
42169,MNAM,small_airport,Altamira Airport,12.11060047,-85.76049805,121,NA_,NI,NI-BO,Altamira,no,MNAM,,,,,
7832,13MI,heliport,Lee Memorial Hospital Heliport,41.9836998,-86.11579895,748,NA_,US,US-MI,Dowagiac,no,13MI,,13MI,,,
4114,LFHV,small_airport,Villefranche-Tarare Airport,45.919983,4.634931,1076,EU,FR,FR-ARA,Villefranche/Tarare,no,LFHV,,,,https://en.wikipedia.org/wiki/Villefranche_-_Tarare_Airport,
329109,IM-0005,heliport,Noble's Hospital Heliport,54.1703682,-4.507838,,EU,IM,IM-U-A,Douglas,no,,,,,,
11279,49CO,small_airport,Air Dusters Inc Airport,40.09329987,-104.375,4780,NA_,US,US-CO,Roggen,no,49CO,,49CO,,,
37783,SWAK,small_airport,Assunção do Içana Airport,1.066388965,-67.60055542,492,SA,BR,BR-AM,São Gabriel Da Cachoeira,no,SWAK,,,,,
325470,28MD,heliport,Fedex Field Heliport,38.908774,-76.866934,190,NA_,US,US-MD,Landover,no,28MD,,28MD,,,
20274,KKI,seaplane_base,Akiachak Seaplane Base,60.90790176,-161.4349976,0,NA_,US,US-AK,Akiachak,no,KKI,,KKI,,,
36986,SJYE,small_airport,Água Fria Airport,4.620560169,-60.27719879,994,SA,BR,BR-RR,Pacaraima,no,SJYE,,,,,
40043,CA-0397,closed,Vankleek Hill Airport,45.450003,-74.683334,228,NA_,CA,CA-ON,Vankleek Hill,no,,,,,,"NR2, CNR2"
21266,KU58,small_airport,Downey/Hyde Memorial Airport,42.42630005,-112.1090012,4906,NA_,US,US-ID,Downey,no,KU58,,U58,,,
17085,D72,seaplane_base,D&C Fire Lake Flying Club Seaplane Base,61.35250092,-149.5460052,295,NA_,US,US-AK,Eagle River,no,D72,,D72,,,
43290,LEPR,small_airport,Palma Del Río Airport,37.71530151,-5.213560104,408,EU,ES,ES-AN,Palma del Rio,no,LEPR,,,,,
43349,FR-0009,heliport,Azur Heliport,43.8069458,-1.255555987,121,EU,FR,FR-NAQ,Dax,no,,,,,,
2949,FNSA,medium_airport,Saurimo Airport,-9.689069748,20.43190002,3584,AF,AO,AO-LSU,Saurimo,no,FNSA,VHC,,,,
1873,CYQN,medium_airport,Nakina Airport,50.18280029,-86.6964035,1057,NA_,CA,CA-ON,Nakina,yes,CYQN,YQN,,,https://en.wikipedia.org/wiki/Nakina_Airport,
18783,KDZJ,small_airport,Blairsville Airport,34.85509872,-83.99690247,1911,NA_,US,US-GA,Blairsville,no,KDZJ,,DZJ,,,Formerly 46A
22051,MI38,small_airport,Eichmeier Field,42.60229874,-84.42639923,900,NA_,US,US-MI,Mason,no,MI38,,MI38,,,
21649,LS15,closed,Diamond Shamrock Heliport,29.891899,-91.680397,20,NA_,US,US-LA,Jeanerette,no,,,,,,LS15
25814,WN19,closed,Gig Harbor Seaplane Base,47.339801,-122.589996,0,NA_,US,US-WA,Gig Harbor,no,,,,,,WN19
3762,KOZR,medium_airport,Cairns AAF (Fort Rucker) Air Field,31.27569962,-85.71340179,301,NA_,US,US-AL,Fort Rucker/Ozark,no,KOZR,OZR,OZR,,https://en.wikipedia.org/wiki/Cairns_Army_Airfield,
327544,ZLLN,medium_airport,Longnan Chengzhou Airport,33.788,105.797,3707,AS,CN,CN-62,Longnan,yes,ZLLN,LNL,,,https://en.wikipedia.org/wiki/Longnan_Chengzhou_Airport,
29241,EKNM,small_airport,"Morsø Airport, Tødsø",56.82440186,8.786669731,53,EU,DK,DK-81,Morsø,no,EKNM,,,,,"Mors, Morso Airport Todso, Morsoe Airport Toedsoe"
17976,II97,small_airport,Solenberg Airport,39.47779846,-85.88330078,720,NA_,US,US-IN,Shelbyville,no,II97,,II97,,,
21782,MA39,heliport,Brigham & Women's Hospital Heliport,42.33589935,-71.10510254,200,NA_,US,US-MA,Boston,no,MA39,,MA39,,,
18535,K22I,small_airport,Vinton County Airport,39.3280983,-82.44180298,958,NA_,US,US-OH,Mc Arthur,no,K22I,,22I,,,
2139,DTTJ,medium_airport,Djerba Zarzis International Airport,33.875,10.7755003,19,AF,TN,TN-82,Djerba,yes,DTTJ,DJE,,,https://en.wikipedia.org/wiki/Djerba-Zarzis_Airport,
23419,NY37,small_airport,Galway Airport,43.00920105,-74.09120178,950,NA_,US,US-NY,Galway,no,NY37,,NY37,,,
319120,MX-0183,small_airport,Los Bravos De Bonfil Airport,17.98953,-91.68843,25,NA_,MX,MX-CAM,Ciudad Del Carmen,no,,,LBB,,,
333588,YCPT,small_airport,Carrapateena Airport,-31.30831,137.443396,672,OC,AU,AU-SA,Carrapateena mine,no,YCPT,,,,https://en.wikipedia.org/wiki/Carrapateena_Airport,
329712,MX-0934,small_airport,Los Pipos Airport,20.309194,-97.323028,105,NA_,MX,MX-VER,Papantla,no,,,LOE,,,
21289,KUGN,small_airport,Waukegan National Airport,42.42219925,-87.86789703,727,NA_,US,US-IL,Chicago/Waukegan,no,KUGN,UGN,UGN,http://waukeganport.com/wkgn_airport/,https://en.wikipedia.org/wiki/Waukegan_National_Airport,"Waukegan Regional Airport, Waukegan Memorial Airport"
12740,5WN2,small_airport,Eberle Ranch Airport,43.2682991,-89.48439789,1050,NA_,US,US-WI,Dane,no,5WN2,,5WN2,,,
14250,7MO4,small_airport,Flintlock Field,39.43190002,-94.8030014,930,NA_,US,US-MO,Platte City,no,7MO4,,7MO4,,,
315175,PG-0086,closed,Yinugen Airstrip,-3.457,142.54,1860,OC,PG,PG-SAN,Yinugen,no,,,,,,
37439,SSDU,small_airport,Fazenda Modelo Airport,-17.99166679,-54.22360992,1309,SA,BR,BR-MS,Pedro Gomes,no,SSDU,,,,,
16245,AL53,heliport,Humana Hospital Shoals Heliport,34.74620056,-87.67639923,500,NA_,US,US-AL,Muscle Shoals,no,AL53,,AL53,,,
15093,8NK4,small_airport,Bethany Airpark,42.94329834,-78.13829803,1000,NA_,US,US-NY,Bethany Center,no,8NK4,,8NK4,,,
40894,SK-446,small_airport,Ventaquemada Airport,4.516667,-74.983333,1700,SA,CO,CO-TOL,Alvarado,no,,,VTQ,,,
318986,BI-0002,small_airport,Mwumba Airport,-2.879447,29.832178,,AF,BI,BI-NG,Ngozi,no,,,,,,
26992,YGFN,medium_airport,Grafton Airport,-29.75939941,153.0299988,110,OC,AU,AU-NSW,,no,YGFN,GFN,,,,
19251,KAGO,small_airport,Ralph C Weiser Field,33.228001,-93.217002,319,NA_,US,US-AR,Magnolia,no,KAGO,AGO,AGO,,https://en.wikipedia.org/wiki/Magnolia_Municipal_Airport,Magnolia Municipal
39200,SCLK,small_airport,Lago Colico Airport,-39.05749893,-72.07416534,1148,SA,CL,CL-AR,Cunco,no,SCLK,,,,,
37553,SSLC,small_airport,Fazenda Laguna Carem Airport,-22.673332,-55.236667,1755,SA,BR,BR-MS,Laguna Carapã,no,,,,,,SSLC
28874,LFGX,small_airport,Champagnole Crotenay Airport,46.76440048,5.820829868,1745,EU,FR,FR-BFC,Verdun,no,LFGX,,,,,
10814,3TN5,heliport,Holston Valley Medical Center Heliport,36.553643,-82.552815,1270,NA_,US,US-TN,Kingsport,no,3TN5,,3TN5,,,Wellmont
42752,AU-0024,small_airport,Port Fairy,-38.36196518,142.2642212,10,OC,AU,AU-VIC,,no,,,,,,
15620,99NJ,heliport,Atlantic County Helistop,39.3757019,-74.53569794,12,NA_,US,US-NJ,Northfield,no,99NJ,,99NJ,,,
334489,JP-0125,heliport,Osaki Wiz City Helipad,35.616711,139.729861,,AS,JP,JP-13,"Shinagawa, Tokyo",no,,,,,,
335168,RU-0527,small_airport,Byas-Kyuyol Airport,59.498603,119.309163,,EU,RU,RU-SA,,yes,UEBY,,,,,
325853,PH-0033,heliport,Manila International Container Terminal (MICT) Heliport,14.597028,120.954743,14,AS,PH,PH-U-A,Manila,no,,,,,,"MICT, Manila International Container Terminal, ICTSI"
21914,MD70,small_airport,Flying Acres Airport,39.18119812,-75.90879822,70,NA_,US,US-MD,Sudlersville,no,MD70,,MD70,,,
6499,UMMG,medium_airport,Hrodna Airport,53.60200119,24.05380058,443,EU,BY,BY-HR,Hrodna,yes,UMMG,GNA_,,,https://en.wikipedia.org/wiki/Hrodna_Airport,"Grodno Airport, Гро́дна"
308288,RK5L,heliport,C 718 Heliport,35.154074,126.86471,170,AS,KR,KR-29,,no,RK5L,,RK5L,,,
5773,SACO,medium_airport,Ingeniero Ambrosio Taravella Airport,-31.323601,-64.208,1604,SA,AR,AR-X,Cordoba,yes,SACO,COR,CBA,,https://en.wikipedia.org/wiki/Ingeniero_Ambrosio_L.V._Taravella_International_Airport,
24497,SC99,small_airport,Whiteplains Airport,33.963902,-81.3592,520,NA_,US,US-SC,Lexington,no,,,9SC,,,SC99
32165,SKPL,small_airport,Plato Airport,9.8,-74.7833,69,SA,CO,CO-MAG,Plato,no,SKPL,PLT,PLT,,,
28692,EDNP,small_airport,Pfarrkirchen Airport,48.42027664,12.86472225,1266,EU,DE,DE-BY,Pfarrkirchen,no,EDNP,,,,,
332904,BR-0535,small_airport,Vitalli Airport,-6.639812,-36.653894,1037,SA,BR,BR-RN,Parelhas,no,SDVZ,,RN0006,,,
38075,SWSV,small_airport,Fazenda Santa Sílvia Airport,-14.38861084,-51.3805542,837,SA,BR,BR-MT,Cocalinho,no,SWSV,,,,,
328618,KR-0994,heliport,Punglim Building Heliport,37.498907,127.031722,,AS,KR,KR-11,Seoul,no,,,,,,Punglim Building
4237,LFSR,closed,Reims-Champagne (BA 112) Air Base,49.310001,4.05,312,EU,FR,FR-GES,Reims/Champagne,no,LFSR,RHE,,,,
12165,58F,small_airport,Lane Field,33.36539841,-97.14610291,700,NA_,US,US-TX,Sanger,no,58F,,58F,,https://en.wikipedia.org/wiki/Lane_Field_Airport,
37026,SJZW,small_airport,Fazenda Regina Airport,-23.28666687,-48.73805618,2044,SA,BR,BR-SP,Itatinga,no,SJZW,,,,,
25415,VA83,small_airport,Fincastle Airport,37.5223999,-79.85199738,1140,NA_,US,US-VA,Fincastle,no,VA83,,VA83,,,
833,CEB3,closed,Colville Lake Airport,67.0392,-126.08,850,NA_,CA,CA-NT,Colville Lake,no,CEB3,,CEB3,,https://en.wikipedia.org/wiki/Colville_Lake_Airport,EB3
2814,FAMS,medium_airport,Morningside Farm Airport,-25.7045002,26.9090004,4251,AF,ZA,ZA-NW,Silveroaks,no,FAMS,,,,,
8245,1CO0,heliport,Aurora Regional Medical Center Heliport,39.68830109,-104.8320007,5604,NA_,US,US-CO,Aurora,no,1CO0,,1CO0,,,
315509,BG-0023,small_airport,Ostrovo,43.6938742,26.5799644,,EU,BG,BG-17,,no,,,LB47,,,
38236,YBAN,small_airport,Mount Barnet Airport,-16.73719978,125.9089966,,OC,AU,AU-WA,,no,YBAN,,,,,
15390,93LA,heliport,Abrom Kaplan Memorial Hospital Heliport,30.03350067,-92.29709625,15,NA_,US,US-LA,Kaplan,no,93LA,,93LA,,,
313055,SI-0016,small_airport,Gorica-Smartno UL field,46.27079,15.23875,829,EU,SI,SI-011,Gorica pri Smartnem v.R.d.,no,,,,,,
31637,HTCH,small_airport,Chunya Airport,-8.558318,33.436368,5000,AF,TZ,TZ-14,Chunya,no,HTCH,,,,,
6124,SKIB,medium_airport,Perales Airport,4.42161,-75.1333,2999,SA,CO,CO-TOL,Ibagué,yes,SKIB,IBE,IBE,,https://en.wikipedia.org/wiki/Perales_Airport,
24614,SN37,small_airport,Harold K. Wells Airport,38.38700104,-96.72969818,1100,NA_,US,US-KS,Elmdale,no,SN37,,SN37,,,
9977,31OH,heliport,Au Heliport,40.77310181,-82.56269836,1300,NA_,US,US-OH,Mansfield,no,31OH,,31OH,,,
36472,SJCV,heliport,Trend Bank Heliport,-22.86444473,-46.0363884,5020,SA,BR,BR-MG,Camanducaia,no,SJCV,,,,,
30068,EBLE,small_airport,Leopoldsburg Airfield,51.12,5.3072222,207,EU,BE,BE-VLI,Leopoldsburg,no,EBLE,,,http://www.eble.be/,https://en.wikipedia.org/wiki/Aeroclub_Sanicole_VZW,Beverlo
38462,YMDW,small_airport,Maitland Downs Airport,-16.22330093,144.7030029,,OC,AU,AU-QLD,,no,YMDW,,,,,
10207,36TA,heliport,G W Heliport,29.55330086,-98.49199677,824,NA_,US,US-TX,San Antonio,no,36TA,,36TA,,,
15345,92FL,small_airport,Carlstrom Field,27.12059975,-81.84980011,35,NA_,US,US-FL,Arcadia,no,92FL,,92FL,,,
317139,AU-0056,heliport,Brooklyn TMC - Olivers Garage Helipad,-33.5562,151.1936,295,OC,AU,AU-NSW,Brooklyn,no,,,OZHJB,,,
322351,CF-0002,small_airport,Bayanga Airport,2.92405,16.265434,,AF,CF,CF-SE,Bayanga,no,,,,,,
323615,SNAA,small_airport,Fazenda da Barra Airport,-19.097706,-51.716482,1542,SA,BR,BR-GO,Aporé,no,SNAA,,,,,
41617,OPKF,small_airport,Gharo Airport,24.72900009,67.58760071,20,AS,PK,PK-SD,Gharo,no,OPKF,,,,,
8705,1TX9,small_airport,Hawk Ranch Airport,32.63759995,-95.16130066,335,NA_,US,US-TX,Hawkins,no,1TX9,,1TX9,,,
328402,KR-0890,heliport,Euro Paratel Motel Heliport,37.5001,126.891913,,AS,KR,KR-11,Seoul,no,,,,,,Euro Paratel Motel
19108,K87K,small_airport,El Dorado Springs Memorial Airport,37.8567009,-93.99909973,931,NA_,US,US-MO,El Dorado Springs,no,K87K,,87K,,,
37095,SNGP,small_airport,Fazenda Santa Maria Airport,-18.58694458,-48.86916733,2624,SA,BR,BR-MG,Tupaciguara,no,SNGP,,,,,
321071,RK8X,heliport,N 309 Helipad,34.728123,126.438295,12,AS,KR,KR-46,,no,RK8X,,RK8X,,,
5730,RPUY,medium_airport,Cauayan Airport,16.92989922,121.7529984,200,AS,PH,PH-ISA,Cauayan City,yes,RPUY,CYZ,,,https://en.wikipedia.org/wiki/Cauayan_Airport,
319016,ZM-0006,small_airport,Macha Airport,-16.373833,26.800379,,AF,ZM,ZM-07,Macha,no,,,,,,
848,CEF4,small_airport,Airdrie Airport,51.26390076,-113.9339981,3648,NA_,CA,CA-AB,Airdrie,no,CEF4,,CEF4,,https://en.wikipedia.org/wiki/Calgary/Airdrie_Airport,EF4
39691,CA-0045,closed,Bennett Field Airport,65.03093035,-124.6666718,,NA_,CA,CA-NT,,no,,,,,,
32466,PLFA,small_airport,Tabuaeran Island Airport,3.89944005,-159.3890076,,OC,KI,KI-L,Tabuaeran Island,no,PLFA,TNV,,,,Fanning Island
299001,CA-0495,small_airport,Selby - Howard's Airstrip,44.31515884,-76.95809662,,NA_,CA,CA-ON,,no,,,,,,
6682,02SC,small_airport,Harpers Airport,32.75849915,-81.22480011,111,NA_,US,US-SC,Estill,no,02SC,,02SC,,,
323129,RK46,heliport,G 602 Airfield,36.550464,128.758087,312,AS,KR,KR-47,Andong,no,RK46,,RK46,,,
36553,SJGH,small_airport,Aeropel Airport,-28.7163887,-55.99250031,300,SA,BR,BR-RS,São Borja,no,SJGH,,,,,
28788,LFCA,small_airport,Aérodrome de Châtellerault-Targé,46.781399,0.551944,207,EU,FR,FR-NAQ,,no,LFCA,,,,,
39537,SLZC,small_airport,San Carlos Airport,-17.43333244,-63.68333435,1150,SA,BO,BO-S,Ichilo,no,SLZC,,,,,
334407,VG5W,medium_airport,"Al Ain Airport Ain District, Shabwah Governorate, Yemen",14.859579,45.545705,,AS,YE,YE-SH,Ain District,no,VG5W,,YEMEN,,,
19856,KFDW,small_airport,Fairfield County Airport,34.31549835,-81.1088028,577,NA_,US,US-SC,Winnsboro,no,KFDW,,FDW,,,
29761,SSQT,small_airport,Castro Airport,-24.80750084,-49.96030045,3314,SA,BR,BR-PR,Castro,no,SSQT,QAC,,,,
28844,LFFK,small_airport,Fontenay Le Comte Airfield,46.441399,-0.792778,85,EU,FR,FR-PDL,,no,LFFK,,,,,
29121,EGCT,small_airport,Tilstock Airfield,52.93080139,-2.646389961,301,EU,GB,GB-ENG,Whitchurch,no,EGCT,,,,https://en.wikipedia.org/wiki/Tilstock_Airfield,"RAF Whitchurch Heath, RAF Tilstock"
15329,91TE,small_airport,Britts Crosswind Airport,30.72470093,-97.86199951,1000,NA_,US,US-TX,Liberty Hill,no,91TE,,91TE,,,
41383,ID-LYK,small_airport,Lunyuk Airport,-8.9889,117.2158,44,AS,ID,ID-NB,Lunyuk-Simbawa Island,no,WADU,LYK,,,http://id.wikipedia.org/wiki/Bandar_Udara_Lunyuk,WRRU
43445,FR-0105,heliport,Centre Hospitalier Heliport,45.54277802,2.312222004,2148,EU,FR,FR-NAQ,Ussel,no,,,,,,
301246,35AL,heliport,Silcox Memorial Heliport,31.089605,-88.245089,339,NA_,US,US-AL,Citronelle,no,35AL,,,,,
319250,ZW-0034,small_airport,Sengwa Research Area Airstrip,-18.165196,28.215618,,AF,ZW,ZW-MN,,no,,,,,,
44751,RU-0202,small_airport,Karachikha Airfield,57.650002,39.759998,,EU,RU,RU-YAR,Yaroslavl,no,,,XUDA,,,Аэродром Карачиха
326600,MX-0656,heliport,Tlatelolco II Heliport,19.433636,-99.14412,7710,NA_,MX,MX-DIF,Cuauhtémoc,no,,,HIY,,,
42676,KE-0033,small_airport,Ol Maisor Airport,0.413292,36.651665,5900,AF,KE,KE-700,Ol Maisor,no,,,,,,
3460,KCMX,medium_airport,Houghton County Memorial Airport,47.16839981,-88.4890976,1095,NA_,US,US-MI,Hancock,yes,KCMX,CMX,CMX,,https://en.wikipedia.org/wiki/Houghton_County_Memorial_Airport,
5264,OPMT,medium_airport,Multan International Airport,30.20319939,71.4190979,403,AS,PK,PK-PB,Multan,yes,OPMT,MUX,,,https://en.wikipedia.org/wiki/Multan_International_Airport,Multan Air Base
15901,9OI6,small_airport,Nesta Airport,40.63280106,-82.17680359,950,NA_,US,US-OH,Loudenville,no,9OI6,,9OI6,,,
13519,6PS3,small_airport,Champ Field,41.95899963,-77.42610168,1220,NA_,US,US-PA,Knoxville,no,6PS3,,6PS3,,,
41926,MRAR,small_airport,Atirro Airport,9.850000381,-83.65000153,1936,NA_,CR,CR-C,Turrialba,no,MRAR,,,,,
44296,UKFI,medium_airport,Saki Air Base,45.0929985,33.59500122,36,EU,UA,UA-43,Saki,no,UKFI,,,,,Аэродом Саки
311836,AYWN,small_airport,Nugwaia Airstrip,-3.8183,142.835,279,OC,PG,PG-ESW,Nugwaia,no,AYWN,,NUG,,,Nunguaiia
321938,US-0370,seaplane_base,Cape Air Seaplanes on Boston Harbor Seaplane Base,42.352502,-71.025832,0,NA_,US,US-MA,Boston,no,MA87,BNH,MA87,,,
12081,56G,small_airport,Indian Creek Ranch Airport,43.57770157,-82.64759827,745,NA_,US,US-MI,Deckerville,no,56G,,56G,,,
335501,SSSV,small_airport,Fazenda Palmitos Airport,-13.820338,-54.755788,1824,SA,BR,BR-MT,Nova Ubiratã,no,SSSV,,MT0510,,,
316745,IE-0004,small_airport,Dolly's Grove,53.4225363,-6.5461492,,EU,IE,IE-D,,no,,,,,,
19315,KASW,small_airport,Warsaw Municipal Airport,41.27470016,-85.84010315,850,NA_,US,US-IN,Warsaw,no,KASW,,ASW,,,
317526,IE-0007,closed,Inishboffin Airfield,53.6196,-10.21085,,EU,IE,IE-G,,no,,,,,,
309490,KSUO,small_airport,Rosebud Sioux Tribal Airport,43.2585,-100.85952,2724,NA_,US,US-SD,Rosebud,no,KSUO,,SUO,,https://en.wikipedia.org/wiki/Rosebud_Sioux_Tribal_Airport,
326011,PH-0104,heliport,Poon Coto Heliport,15.562515,120.097468,,AS,PH,PH-ZMB,Masinloc,no,,,,,https://en.wikipedia.org/wiki/List_of_airports_in_the_Philippines,"Poon Coto, Masinloc"
1510,CSE3,small_airport,Lourdes-De-Joliette Airport,46.1094017,-73.45279694,350,NA_,CA,CA-QC,Lourdes-De-Joliette,no,CSE3,,CSE3,,https://en.wikipedia.org/wiki/Lourdes-De-Joliette_Airport,SE3
318796,TZ-0138,small_airport,Kasense Airport,-5.784903,31.355212,3000,AF,TZ,TZ-24,,no,HTKN,,,,,
46345,RU-0420,small_airport,Staritsa Airstrip,56.51234354,34.97197151,,EU,RU,RU-TVE,Staritsa,no,,,,,,ВПП Старица
37217,SNPR,heliport,Gilson Machado Heliport,-8.19972229,-35.61611176,1529,SA,BR,BR-PE,Gravatá,no,SNPR,,,,,
22894,ND87,small_airport,Indian Hill Resort Airport,47.60559845,-102.1050034,2010,NA_,US,US-ND,Garrison,no,ND87,,ND87,,,
310492,ID-0090,small_airport,Landikma Airstrip,-3.8212,139.2423,3345,AS,ID,ID-PA,Landikma,no,,,LAN,,,WZ64
22229,MO24,small_airport,Lonesome Sky Airport,40.14279938,-95.38829803,868,NA_,US,US-MO,Craig,no,MO24,,MO24,,,
14020,79ND,closed,Reimers Airport,47.323298,-99.001198,1590,NA_,US,US-ND,Carrington,no,,,,,,79ND
325190,MX-0576,small_airport,San Rafael Airport,24.66745,-107.401428,148,NA_,MX,MX-SIN,Culiacan,no,,,SRY,,,
325954,PK-0025,closed,Notakzai Airport,29.653524,66.383008,5102,AS,PK,PK-BA,Notakzai,no,,,,,,
23089,NJ44,heliport,Liberty Hall Heliport,40.67509842,-74.24539948,43,NA_,US,US-NJ,Elizabeth,no,NJ44,,NJ44,,,
39173,SCII,small_airport,Puerto Ingeniero Ibañez Airport,-46.28583145,-71.94777679,820,SA,CL,CL-AI,Puerto Ingeniero Ibañez,no,SCII,,,,,
4430,LOWG,medium_airport,Graz Airport,46.99110031,15.43959999,1115,EU,AT,AT-6,Graz,yes,LOWG,GRZ,,http://www.flughafen-graz.at/,https://en.wikipedia.org/wiki/Graz_Airport,"Thalerhof Airport, Fliegerhorst Nittner, Nittner Air Base"
27086,YNRM,medium_airport,Narromine Airport,-32.21469879,148.2250061,782,OC,AU,AU-NSW,,no,YNRM,QRM,,,,
36600,SJIH,heliport,Polícia Federal do Espírito Santo Heliport,-20.32722282,-40.35333252,62,SA,BR,BR-ES,Vila Velha,no,SJIH,,,,,
23386,NY05,small_airport,Hogan Airport,42.78150177,-74.32569885,1260,NA_,US,US-NY,Esperance,no,NY05,,NY05,,,
318693,KE-0090,small_airport,Asako Airport,-0.107107,39.046973,500,AF,KE,KE-400,,no,,,,,,
310572,AYUG,small_airport,Brugam Airstrip,-3.6381,142.8379,595,OC,PG,PG-ESW,Wa'ahun,no,AYUG,,BRG,,,
959,CFK6,small_airport,Olds (Netook) Airport,51.84999847,-114.0670013,3330,NA_,CA,CA-AB,Olds,no,CFK6,,CFK6,,https://en.wikipedia.org/wiki/Olds_(Netook)_Airport,FK6
327165,KR-0362,heliport,Lotte Busan Department Store Heliport,35.156651,129.056303,,AS,KR,KR-26,Busan,no,,,,,,Lotte Busan Department Store
37974,SWMZ,small_airport,Estância Aeronaldo Airport,-16.44277763,-54.70194244,1000,SA,BR,BR-MT,Rondonópolis,no,SWMZ,,,,,
22767,NC25,small_airport,Gold Hill Airport,35.50899887,-80.311203,720,NA_,US,US-NC,Gold Hill,no,NC25,,NC25,,,
335313,BR-0840,small_airport,Fazenda Boqueirão de Cedro Airport,-12.890307,-46.693536,2287,SA,BR,BR-TO,Arraias,no,SIDK,,TO0017,,,
30569,FAWC,small_airport,Worcester Glider Airport,-33.6631012,19.41530037,673,AF,ZA,ZA-WC,Worcester,no,FAWC,,,,,
324375,US-0310,heliport,Jones Regional Medical Center Heliport,42.100962,-91.2618444,838,NA_,US,US-IA,Anamosa,no,IA52,,IA52,,,
316379,LBSB,small_airport,Slanchev Bryag,42.7263814,27.6250285,,EU,BG,BG-02,,no,LBSB,,,,,
320317,CZ-0108,small_airport,Bezno Airstrip,50.356925,14.8068316,,EU,CZ,CZ-ST,Bezno,no,,,,,,
37003,SJYZ,small_airport,Fazenda Lagoa Encantada Airport,-15.27027798,-54.25749969,1968,SA,BR,BR-MT,Primavera Do Leste,no,SJYZ,,,,,
26338,Y88,small_airport,Green Lake Airport,44.60609818,-85.75839996,866,NA_,US,US-MI,Interlochen,no,Y88,,Y88,,,
43914,BG-0017,closed,Topolovgrad Airfield,42.11302,26.382551,784,EU,BG,BG-26,Topolovgrad,no,,,,,,
23174,NK40,heliport,Regeneron Campus Heliport,41.112805,-73.862833,150,NA_,US,US-NY,North Tarrytown,no,NK40,,NK40,,,IBM Mount Pleasant
316472,BKVR,heliport,Vali Ranch Heliport,42.513732,21.534508,2168,EU,XK,XK-06,Përlepnice,no,BKVR,,,,,Vali
31747,UKFK,small_airport,Kerch Airport,45.37250137,36.40140152,171,EU,UA,UA-43,Kerch,no,UKFK,KHC,,,,
691,CBK6,small_airport,Quesnel Lake Airport,52.51499939,-121.0449982,2500,NA_,CA,CA-BC,Quesnel Lake,no,CBK6,,CBK6,,https://en.wikipedia.org/wiki/Quesnel_Lake_Airport,BK6
335465,AU-0173,heliport,Camden - Onslow Park HLS,-34.05324,150.691285,204,OC,AU,AU-NSW,Camden,no,,,OZHKC,,,
6896,06O1,heliport,Saint Elizabeth Medical Center Heliport,41.1147995,-80.65699768,1020,NA_,US,US-OH,Youngstown,no,06O1,,06O1,,,
314770,CL-0001,closed,Bahia Catalina Airport,-53.1315,-70.87,30,SA,CL,CL-MA,Punta Arenas,no,,,,,,
318952,MZ-0023,small_airport,Espungabera Airport,-20.438769,32.774927,,AF,MZ,MZ-B,Espungabera,no,,,,,,
333692,OPIS,large_airport,Islamabad International Airport,33.549,72.82566,1761,AS,PK,PK-PB,Islamabad,yes,OPIS,ISB,,http://www.islamabadairport.com.pk/,https://en.wikipedia.org/wiki/Islamabad_International_Airport,
1876,CYQS,medium_airport,St Thomas Municipal Airport,42.77000046,-81.1108017,778,NA_,CA,CA-ON,St Thomas,no,CYQS,YQS,,,https://en.wikipedia.org/wiki/St._Thomas_Airport,
11111,45CL,small_airport,Hell'er High Water Airport,40.14319992,-123.3980026,2493,NA_,US,US-CA,Zenia,no,45CL,,45CL,,,
34980,RU-8709,medium_airport,Dorokhovo Air Base,57.72499847,36.65169907,469,EU,RU,RU-TVE,Bezhetsk,no,,,,,https://en.wikipedia.org/wiki/Dorokhovo,"Bezhetsk, Bezhetsk, Dorokhov"
26359,Z71,seaplane_base,Cape Pole Seaplane Base,55.96630096,-133.7969971,0,NA_,US,US-AK,Cape Pole,no,Z71,CZP,Z71,,,
26100,WY39,small_airport,Star Valley Ranch Airport,42.9693985,-110.9660034,6210,NA_,US,US-WY,Thayne,no,WY39,,WY39,,,
16188,AK97,small_airport,Boswell Bay Airport,60.42309952,-146.1459961,230,NA_,US,US-AK,Boswell Bay,no,AK97,BSW,AK97,,https://en.wikipedia.org/wiki/Boswell_Bay_Airport,
19877,KFLP,small_airport,Marion County Regional Airport,36.29090118,-92.59030151,719,NA_,US,US-AR,Flippin,no,KFLP,FLP,FLP,http://www.marioncountyairport.com/default.htm,https://en.wikipedia.org/wiki/Marion_County_Regional_Airport,
17753,IA76,small_airport,Cobb Farm Airport,40.72809982,-93.34329987,1100,NA_,US,US-IA,Corydon,no,IA76,,IA76,,,
20934,KRJD,small_airport,Ridgely Airpark,38.9701004,-75.86630249,64,NA_,US,US-MD,Ridgely,no,KRJD,,RJD,,,
42293,MUMH,small_airport,Matahambre Airport,22.58749962,-83.94499969,396,NA_,CU,CU-01,Matahambre,no,MUMH,,,,,
15659,77MI,closed,David's Airport,42.0653,-85.241602,887,NA_,US,US-MI,Athens,no,,,,,https://en.wikipedia.org/wiki/David%27s_Airport,9C2
322119,FR-0351,seaplane_base,Base Hydro-ULM Rhône Lavours,45.8108763,5.78132,,EU,FR,FR-ARA,Lavours,no,,,LF0158,,,
14561,82D,closed,Weiker Airport,41.229198,-83.029099,740,NA_,US,US-OH,Green Springs,no,,,,,,82D
6568,00VA,small_airport,Vaughan Airport,36.57600021,-78.9991684,551,NA_,US,US-VA,Alton,no,00VA,,00VA,,,
2694,ESOH,medium_airport,Hagfors Airport,60.02009964,13.57890034,474,EU,SE,SE-S,,yes,ESOH,HFS,,,https://en.wikipedia.org/wiki/Hagfors_Airport,
324015,EVHB,heliport,Baltijas Helikopters heliport,56.607936,23.458431,,EU,LV,LV-JL,Nākotne,no,EVHB,,,,,
18847,K4R7,small_airport,Eunice Airport,30.46629906,-92.42379761,42,NA_,US,US-LA,Eunice,no,4R7,UCE,4R7,,,
25548,VT53,small_airport,Bailey Airport,44.117795,-73.377546,140,NA_,US,US-VT,Panton,no,VT53,,VT53,,,Staton Airport
44976,IR-0012,small_airport,Tehran West Airport,35.74196675,51.22922659,,AS,IR,IR-07,,no,,,,,,
323523,SDHR,small_airport,Fazenda União Airport,-20.905209,-57.229258,476,SA,BR,BR-MS,Porto Murtinho,no,SDHR,,SDHR,,,
17327,FD56,heliport,Inhome Medical Landing Heliport,29.45439911,-81.51920319,55,NA_,US,US-FL,Crescent City,no,FD56,,FD56,,,
16358,AR71,heliport,Hospital Heliport,35.46760178,-93.4190979,491,NA_,US,US-AR,Clarksville,no,AR71,,AR71,,,
21097,KSOW,small_airport,Show Low Regional Airport,34.26549912,-110.0059967,6415,NA_,US,US-AZ,Show Low,no,KSOW,SOW,SOW,,https://en.wikipedia.org/wiki/Show_Low_Regional_Airport,
318358,BR-0066,small_airport,Fordlândia Airport,-3.791178,-55.470674,,SA,BR,BR-PA,Fordlândia,no,,,,,,
1659,CYAS,medium_airport,Kangirsuk Airport,60.02719879,-69.99919891,403,NA_,CA,CA-QC,Kangirsuk,yes,CYAS,YKG,,,https://en.wikipedia.org/wiki/Kangirsuk_Airport,YAS
28147,SCIR,small_airport,Robinson Crusoe Airport,-33.66500092,-78.92970276,433,SA,CL,CL-VS,Isla Robinson Crusoe,no,SCIR,,,,http://es.wikipedia.org/wiki/Aer%C3%B3dromo_Robinson_Crusoe,
6451,UGKO,medium_airport,Kopitnari Airport,42.17670059,42.48260117,223,AS,GE,GE-IM,Kutaisi,yes,UGKO,KUT,,,https://en.wikipedia.org/wiki/Kopitnari_Airport,
328162,KR-0775,heliport,KEB Hana Bank Heliport,37.565707,126.985211,,AS,KR,KR-11,Seoul,no,,,,,,KEB Hana Bank
30692,DIBU,small_airport,Soko Airport,8.017219543,-2.761940002,1247,AF,CI,CI-08,Bondoukou,no,DIBU,BDK,,,,
3327,VI65,small_airport,Kargil Airport,34.52429962,76.15589905,9604,AS,IN,IN-JK,,no,VI65,,VI65,,https://en.wikipedia.org/wiki/Kargil_Airport,
330152,MX-0957,closed,El Potrero Airport,21.341221,-104.316192,3937,NA_,MX,MX-NAY,La Yesca,no,,,ELX,,,
22522,MU27,small_airport,Woodfield Airpark Inc Airport,37.4681015,-93.92939758,1050,NA_,US,US-MO,Lockwood,no,MU27,,MU27,,,
22960,NE82,small_airport,Nolte Farms Airport,40.93249893,-95.99949646,1245,NA_,US,US-NE,Murray,no,NE82,,NE82,,,
324708,71NH,heliport,Brady-Laconia Heliport,43.600928,-71.466115,516,NA_,US,US-NH,Laconia,no,71NH,,71NH,,,
334360,VT80,heliport,Monument Farms Dairy Bittersweet Falls Road Heliport,44.036531,-73.213869,394,NA_,US,US-VT,Weybridge,no,VT80,,VT80,,,
8574,1OA8,small_airport,Erdy Farm Airport,40.34669876,-82.90440369,981,NA_,US,US-OH,Kilbourne,no,1OA8,,1OA8,,,
315587,DE-0245,heliport,SRH Hospital Helipad,50.603,10.7104,1759,EU,DE,DE-TH,Suhl,no,,,,,,
321284,DE-0402,small_airport,Donstorf UL,52.655,8.556944,128,EU,DE,DE-NI,,no,,,,,,
40966,SK-006,small_airport,El Plateado Airport,6.730556,-76.146389,5555,SA,CO,CO-ANT,Frontino,no,,,FRO,,,
23273,NM55,small_airport,Whitewater Mesa Ranch Airport,33.3628006,-108.8639984,5460,NA_,US,US-NM,Glenwood,no,NM55,,NM55,,,
5930,SBLN,medium_airport,Lins Airport,-21.66399956,-49.73049927,1559,SA,BR,BR-SP,Lins,no,SWXQ,LIP,SWXQ,,https://pt.wikipedia.org/wiki/Aeroporto_de_Lins,SBLN
321385,CA-0675,closed,Geraldton Water Aerodrome,49.6963,-86.86,1086,NA_,CA,CA-ON,Geraldton,no,,,NA6,,,
21027,KS94,small_airport,Port of Whitman Business Air Center Airport,46.8586998,-117.4140015,2181,NA_,US,US-WA,Colfax,no,KS94,,S94,,,
307336,TF-0001,small_airport,Tromelin Island Airstrip,-15.89166667,54.52222222,20,AF,TF,TF-U-A,Ile Tromelin,no,,,,,,
3562,KGRB,large_airport,Austin Straubel International Airport,44.48509979,-88.12960052,695,NA_,US,US-WI,Green Bay,yes,KGRB,GRB,GRB,,https://en.wikipedia.org/wiki/Austin_Straubel_International_Airport,
36124,SIMY,small_airport,Fazenda Porto Oculto Airport,-23.211108,-54.095982,972,SA,BR,BR-MS,Itaquiraí,no,SIMY,,MS0104,,,
32187,SDYM,small_airport,Limeira Airport,-22.603889,-47.411944,2172,SA,BR,BR-SP,Limeira,no,SDYM,QGB,,,,
1223,CKQ9,small_airport,Pine Dock Airport,51.61999893,-96.81079865,750,NA_,CA,CA-MB,Pine Dock,no,CKQ9,,CKQ9,,https://en.wikipedia.org/wiki/Pine_Dock_Airport,KQ9
42179,MNRS,small_airport,Rivas,11.42770004,-85.83850098,174,NA_,NI,NI-RI,Rivas,no,MNRS,,,,,
327946,KR-0667,heliport,Korea Economic Daily Heliport,37.560251,126.967193,,AS,KR,KR-11,Seoul,no,,,,,,Korea Economic Daily
36904,SJUT,heliport,Cimento Rio Branco Heliport,-25.18527794,-49.31666565,3066,SA,BR,BR-PR,Rio Branco Do Sul,no,SJUT,,,,,
26719,VYHL,small_airport,Hommalinn Airport,24.89959908,94.91400146,534,AS,MM,MM-01,Hommalinn,no,VYHL,HOX,,,,
11875,51KY,heliport,Appalachian Regional Hospital Heliport,37.11320114,-82.81240082,1220,NA_,US,US-KY,Whitesburg,no,51KY,,51KY,,,
18344,K0A4,small_airport,Johnson City Stolport Airport,36.36370087,-82.30899811,1550,NA_,US,US-TN,Johnson City,no,K0A4,,0A4,,,
335319,BR-0845,heliport,Cidade da Polícia Heliport,-22.880138,-43.25493,404,SA,BR,BR-RJ,Rio de Janeiro,no,SIDU,,RJ0074,,,
308281,IN-0085,small_airport,Airport,26.436257,73.102823,,AS,IN,IN-RJ,,no,,,,,,
323443,GB-0506,small_airport,Englefield Airstrip,51.4262846,-1.1114557,,EU,GB,GB-ENG,Theale,no,,,,,,
2864,FBSK,large_airport,Sir Seretse Khama International Airport,-24.555201,25.9182,3299,AF,BW,BW-SE,Gaborone,yes,FBSK,GBE,,,https://en.wikipedia.org/wiki/Sir_Seretse_Khama_International_Airport,
333904,FR-0410,small_airport,Villeneuve du Latou Airfield,43.20358,1.418663,1330,EU,FR,FR-OCC,Villeneuve-du-Latou,no,,,LF0925,,,
18875,K52J,small_airport,Lee County Butters Field,34.24449921,-80.23600006,211,NA_,US,US-SC,Bishopville,no,K52J,,52J,,,
44392,RU-0132,medium_airport,Chernigovka Air Base,44.32500076,132.5449982,,AS,RU,RU-PRI,Chernigovka,no,,,,,,Аэродром Черниговка
35597,SDKH,heliport,Edifício New Century Heliport,-21.205485,-47.810173,2179,SA,BR,BR-SP,Ribeirão Preto,no,,,,,,SDKH
299269,csv8,small_airport,Schomberg (Sloan Valley View Farm Airfield),43.98614524,-79.72728968,890,NA_,CA,CA-ON,,no,CSV8,,,,,
29472,LOLG,small_airport,St. Georgen Am Ybbsfelde Airport,48.10359955,14.95079994,827,EU,AT,AT-3,St. Georgen Am Ybbsfelde,no,LOLG,,,,,
413,SNVR,small_airport,Aeroclube da Bahia Airport,-13.02470016,-38.66579819,12,SA,BR,BR-BA,Vera Cruz,no,SNVR,,SNVR,,,
22868,ND42,small_airport,Warren Pietsch Airport,48.10309982,-101.0780029,1550,NA_,US,US-ND,Sawyer,no,ND42,,ND42,,,
333301,GB-0740,small_airport,Balgrummo Steading Airstrip,56.2178,-3.0207,,EU,GB,GB-SCT,Bonnybank,no,,,,,,
327675,KR-0581,heliport,Jindong-ri Helipad,37.996748,128.502185,,AS,KR,KR-42,Jindong-ri,no,,,,,,Jindong-ri
5353,PADQ,medium_airport,Kodiak Airport,57.75,-152.4940033,78,NA_,US,US-AK,Kodiak,yes,PADQ,ADQ,ADQ,,https://en.wikipedia.org/wiki/Kodiak_Airport,
22898,ND96,small_airport,Sauter Airport,46.80170059,-100.6790009,1730,NA_,US,US-ND,Bismark,no,ND96,,ND96,,,
323007,RK9X,heliport,N 209 Helipad,37.769224,124.756531,230,AS,KR,KR-28,Socheong Island,no,,,RK9X,,,"N 209, N-209, RK9X, Socheong"
323333,IL39,small_airport,Perry RLA Airport,39.480255,-87.8445778,691,NA_,US,US-IL,Kansas,no,IL39,,IL39,,,
10854,3VG3,small_airport,Serenity Farm Airport,37.93610001,-76.34860229,10,NA_,US,US-VA,Burgess,no,3VG3,,3VG3,,,
38502,YMVH,small_airport,Marvel Loch Airport,-31.4666996,119.5329971,,OC,AU,AU-WA,,no,YMVH,,,,,
30384,MDHE,closed,Herrera Airport,18.46969986,-69.9693985,190,NA_,DO,DO-01,Santo Domingo,no,MDHE,HEX,,,https://en.wikipedia.org/wiki/Herrera_International_Airport,
8018,16SC,small_airport,Southern Aero Sports Airport,34.62509918,-81.89839935,600,NA_,US,US-SC,Cross Anchor,no,16SC,,16SC,,,
22510,MU13,closed,Bakers Landing Airport,37.059799,-93.600998,1340,NA_,US,US-MO,Billings,no,,,,,,MU13
14251,7MO5,small_airport,Elton Field,39.33470154,-94.81269836,780,NA_,US,US-MO,Platte City,no,7MO5,,7MO5,,,
310173,ID-0027,small_airport,Arsbol Airstrip,-3.6941,138.9372,2800,AS,ID,ID-PA,,no,,,ARS,,,
331757,MX-1085,small_airport,Sindicato Nacional de Los Trabajadores de La Educación Heliport,19.34696,-99.281555,8553,NA_,MX,MX-DIF,Cuajimalpa,no,,,HSN,,,
7206,0IA5,small_airport,Moore Private Airport,40.87220001,-93.26270294,1060,NA_,US,US-IA,Millerton,no,0IA5,,0IA5,,,
316165,LDZE,small_airport,Zvekovac,45.823056,16.5,374,EU,HR,HR-01,Zvekovac,no,LDZE,,,http://www.akdubrava.net,,
10021,32OR,small_airport,Pine Hollow Airport,45.25479889,-121.2939987,1820,NA_,US,US-OR,Wamic,no,32OR,,32OR,,,
317553,LHBF,small_airport,Bükfördö,47.3848,16.80264,545,EU,HU,HU-VA,Bö,no,LHBF,,,,,
15591,98TX,heliport,Cig 402 Heliport,27.25670052,-98.09420013,110,NA_,US,US-TX,Falfurrias,no,98TX,,98TX,,,
35798,SDXI,small_airport,Fazenda Cajueiro Airport,-4.238611221,-48.4766655,577,SA,BR,BR-PA,São Domingos Do Capim,no,SDXI,,,,,
309673,RJTI,heliport,Tokyo Heliport,35.635924,139.839475,14,AS,JP,JP-13,"Edogawa, Tokyo",no,RJTI,,,http://www.kouwan.metro.tokyo.jp/rito/tmg_heliport/,https://en.wikipedia.org/wiki/Tokyo_Heliport,QXO
22361,MS60,heliport,Lundys Heliport,30.45459938,-88.9375,22,NA_,US,US-MS,Biloxi,no,MS60,,MS60,,,
20253,KK49,small_airport,Texhoma Municipal Airport,36.5056,-101.814003,3462,NA_,US,US-OK,Texhoma,no,,,K49,https://okairports.com/texhoma-municipal-airport-nw,https://en.wikipedia.org/wiki/Municipal_Airport_(Oklahoma),
27947,YSFI,small_airport,Sandfire Airport,-19.76670074,121.1669998,,OC,AU,AU-WA,,no,YSFI,,,,,
14982,8K7,small_airport,Paul Windle Municipal Airport,37.59999847,-99.27510071,2230,NA_,US,US-KS,Greensburg,no,8K7,,8K7,,,
40806,SK-292,small_airport,Guanayas Airport,3.353889,-73.577778,832,SA,CO,CO-MET,Fuente De Oro,no,,,FEO,,,
332551,MX-1119,small_airport,Terrenates Airport,25.70654,-104.644431,6168,NA_,MX,MX-DUR,Villa Hidalgo,no,,,TRT,,,
8627,1PS0,small_airport,Ickes Airport,40.19189835,-78.56469727,1320,NA_,US,US-PA,Osterburg,no,1PS0,,1PS0,,,
315496,DE-0221,closed,GSD Flugplatz,50.328396,11.282356,,EU,DE,DE-BY,,no,,,,,,
316363,MX-0084,small_airport,Miguel Aleman Airport,16.2178,-92.1115,5287,NA_,MX,MX-CHP,Comitán,no,,,MAX,,,
42992,USTL,small_airport,Plekhanovo Airport,57.14333344,65.46833038,308,AS,RU,RU-TYU,Tyumen,no,USTL,,,,https://en.wikipedia.org/wiki/Plekhanovo_Airport,Plekhanovo
322438,GB-0494,small_airport,Avon Lane Airfield,51.4102105,-2.4477922,,EU,GB,GB-ENG,Saltford,no,,,,,,
32081,OASA,small_airport,Sharana Airstrip,33.12575,68.838517,7340,AS,AF,AF-PKA,Sharana,no,OASA,OAS,,,,Sharana Air Base
327937,KR-0658,heliport,Hyundai Camelia Haute Apartments Heliports,35.15785,129.150325,,AS,KR,KR-26,Busan,no,,,,,,Hyundai Camelia Haute Apartment
439,SSBY,small_airport,Orlando Chesini Ometto Airport,-20.09950066,-56.79389954,443,SA,BR,BR-MS,Miranda,no,SSBY,,SSBY,,,
20219,KJOT,small_airport,Joliet Regional Airport,41.51779938,-88.17549896,582,NA_,US,US-IL,Joliet,no,KJOT,JOT,JOT,http://www.jolietpark.org/index.php/facilities/joliet-regional-airport,https://en.wikipedia.org/wiki/Joliet_Regional_Airport,
320116,CA-0591,heliport,Canmore Hospital Helipad,51.0924,-115.349501,4305,NA_,CA,CA-AB,Canmore,no,,,CCH3,,,
9006,24LL,small_airport,Lambert Airport,38.08620071,-89.45899963,510,NA_,US,US-IL,Pinckneyville,no,24LL,,24LL,,,
12169,58II,small_airport,Henneman Airport,39.52090073,-85.90000153,770,NA_,US,US-IN,Boggstown,no,58II,,58II,,,
1519,CSG7,heliport,François Desourdy Heliport,45.4496994,-71.86889648,722,NA_,CA,CA-QC,Sherbrooke,no,CSG7,,CSG7,,,SG7
19616,KDAW,small_airport,Skyhaven Airport,43.28409958,-70.9292984,322,NA_,US,US-NH,Rochester,no,KDAW,,DAW,,,
9388,2FD6,small_airport,Highlander Airport,28.88800049,-80.86640167,15,NA_,US,US-FL,Oak Hill,no,2FD6,,2FD6,,,
16862,CO08,closed,Public Service of Colorado Arvada Heliport,39.8092,-105.047997,5290,NA_,US,US-CO,Arvada,no,,,,,,CO08
27221,ZSNJ,large_airport,Nanjing Lukou Airport,31.74200058,118.8619995,49,AS,CN,CN-32,Nanjing,yes,ZSNJ,NKG,,,https://en.wikipedia.org/wiki/Nanjing_Lukou_International_Airport,
21615,LL75,small_airport,Chester Wyss Airport,42.42499924,-89.45010376,920,NA_,US,US-IL,Rock City,no,LL75,,LL75,,,
23947,OR97,small_airport,Burrill Airport,42.43870163,-122.8639984,1310,NA_,US,US-OR,Medford,no,OR97,,OR97,,,
14196,7LA8,heliport,Natchitoches Parish Hospital Heliport,31.75359917,-93.0789032,116,NA_,US,US-LA,Natchitoches,no,7LA8,,7LA8,,,
6698,03AR,heliport,Hscmh Heliport,34.35760117,-92.78849792,350,NA_,US,US-AR,Malvern,no,03AR,,03AR,,,
19943,KGEZ,small_airport,Shelbyville Municipal Airport,39.583199,-85.804802,803,NA_,US,US-IN,Shelbyville,no,KGEZ,,GEZ,,https://en.wikipedia.org/wiki/Shelbyville_Municipal_Airport_(Indiana),
4636,MDPC,large_airport,Punta Cana International Airport,18.56739998,-68.36340332,47,NA_,DO,DO-11,Punta Cana,yes,MDPC,PUJ,,,https://en.wikipedia.org/wiki/Punta_Cana_International_Airport,
4500,LSPM,small_airport,Ambri Airport,46.512501,8.68978,3241,EU,CH,CH-TI,Quinto,no,LSPM,,,https://www.ambri-airport.com/,https://en.wikipedia.org/wiki/Ambri_Airport,
23313,NV02,small_airport,O'Toole Ranch Airport,39.0666008,-117.4219971,6520,NA_,US,US-NV,Austin,no,NV02,,NV02,,,
21790,MA47,heliport,Chicopee Heliport,42.18259811,-72.56150055,245,NA_,US,US-MA,Chicopee,no,MA47,,MA47,,,
26179,XA44,small_airport,Birchfield Ranch Airport,31.26609993,-98.42389679,1550,NA_,US,US-TX,Lometa,no,XA44,,XA44,,,
19643,KDMW,small_airport,Carroll County Regional Jack B Poage Field,39.60829926,-77.00769806,789,NA_,US,US-MD,Westminster,no,KDMW,,DMW,,https://en.wikipedia.org/wiki/Carroll_County_Regional_Airport,
44455,CA-0307,small_airport,Orono / Hawkefield,44,-78.6488,620,NA_,CA,CA-ON,,no,CHF4,,CHF4,,,
31533,GLBU,small_airport,Buchanan Airport,5.904167,-10.058333,41,AF,LR,LR-GB,Buchanan,no,GLBU,UCN,,,https://en.wikipedia.org/wiki/Buchanan_Airport,
38517,YNOC,small_airport,Nockatunga Airport,-27.7166996,142.7120056,,OC,AU,AU-QLD,,no,YNOC,,,,,
10846,3VA2,small_airport,Aviacres Airport,38.6242981,-77.78610229,435,NA_,US,US-VA,Warrenton,no,3VA2,,3VA2,,,
16095,PAJC,small_airport,Chignik Airport,56.31150055,-158.3730011,18,NA_,US,US-AK,Chignik,no,PAJC,,AJC,,,
315337,UESA,small_airport,Andreshkino Airport,69.1728,154.4552,26,EU,RU,RU-SA,Andreshkino,no,UESA,,UESA,,,"УЕСА, Андрюшкино"
35193,PG-WPM,small_airport,Wipim Airport,-8.788220406,142.8820038,173,OC,PG,PG-WPD,Wipim,yes,AYXP,WPM,WPM,,https://en.wikipedia.org/wiki/Wipim_Airport,
36043,SIJF,heliport,Edifício Faria Lima Financial Center Heliport,-23.58596,-46.683376,2693,SA,BR,BR-SP,São Paulo,no,SIJF,,SP0511,,,
5640,RKPD,medium_airport,Jeongseok Airport,33.39960098,126.711998,1171,AS,KR,KR-49,Jeju Island,no,RKPD,JDG,,,https://en.wikipedia.org/wiki/Jeongseok_Airport,Cheju
334835,US-1437,closed,Heron Field,33.606613,-114.574227,,NA_,US,US-CA,Blythe,no,,,,,,"blythe, heron"
3870,KSBY,medium_airport,Salisbury Ocean City Wicomico Regional Airport,38.34049988,-75.51029968,52,NA_,US,US-MD,Salisbury,yes,KSBY,SBY,SBY,,https://en.wikipedia.org/wiki/Wicomico_Regional_Airport,
688,CBJ9,heliport,San Juan Point (Coast Guard) Heliport,48.531491,-124.458178,25,NA_,CA,CA-BC,San Juan Point,no,CBJ9,,CBJ9,,,BJ9
11034,43II,heliport,Kirk Heliport,41.45230103,-87.31890106,710,NA_,US,US-IN,Merrillville,no,43II,,43II,,,
45649,SDWI,small_airport,Fazenda Lagoa do Cavalo Airport,-8.17,-35.63,1709,SA,BR,BR-PE,Gravatá,no,SDWI,,,,,
40050,CA-0404,closed,Werenko Airport,48.799886,-93.081944,1284,NA_,CA,CA-ON,Werenko,no,,,KC4,,,
5784,SAHS,medium_airport,Rincon De Los Sauces Airport,-37.3905983,-68.90419769,1968,SA,AR,AR-Q,Rincon de los Sauces,no,SAHS,RDS,RIN,,,
17502,GA28,heliport,East Georgia Regional Medical Center Heliport,32.40530014,-81.76830292,212,NA_,US,US-GA,Statesboro,no,GA28,,GA28,,,
21215,KTPF,small_airport,Peter O Knight Airport,27.91559982,-82.44930267,8,NA_,US,US-FL,Tampa,no,KTPF,TPF,TPF,http://www.tampaairport.com/peter-o-knight-airport,https://en.wikipedia.org/wiki/Peter_O._Knight_Airport,
19873,KFKN,small_airport,Franklin Regional Airport,36.698101,-76.903801,41,NA_,US,US-VA,Franklin,no,KFKN,FKN,FKN,http://www.franklinva.com/index.php?option=com_content&view=article&id=30&Itemid=168,https://en.wikipedia.org/wiki/Franklin_Municipal%E2%80%93John_Beverly_Rose_Airport,Franklin Municipal-John Beverly Rose
22713,NA32,small_airport,Johnson Airstrip,46.89860153,-98.85870361,1548,NA_,US,US-ND,Eldridge,no,NA32,,NA32,,,
42012,MSLC,small_airport,La Cabaña Airport,14.00981045,-89.18476105,885,NA_,SV,SV-SS,La Cabaña,no,MSLC,,,,,
38067,SWSH,small_airport,São Raimundo II Airport,-9.966388702,-56.15277863,932,SA,BR,BR-MT,Alta Floresta,no,SWSH,,,,,
16231,AL39,heliport,Shelby Medical Center Heliport,33.25220108,-86.81220245,510,NA_,US,US-AL,Alabaster,no,AL39,,AL39,,,
42171,MNCH,small_airport,Chinandega Airport,12.64000034,-87.13739777,174,NA_,NI,NI-CI,Chinandega,no,MNCH,,,,https://en.wikipedia.org/wiki/Chinandega_Airport,
21464,L92,small_airport,Alamo Landing Field,37.36249924,-115.1940002,3719,NA_,US,US-NV,Alamo,no,L92,,L92,,https://en.wikipedia.org/wiki/Alamo_Landing_Field,
1390,CPD4,small_airport,Brussels (Armstrong Field) Airport,43.75,-81.23329926,1100,NA_,CA,CA-ON,Brussels,no,CPD4,,CPD4,,https://en.wikipedia.org/wiki/Brussels_(Armstrong_Field)_Airport,PD4
11544,4MD9,small_airport,St John Airport,39.48059845,-76.76059723,461,NA_,US,US-MD,Owings Mills,no,4MD9,,4MD9,,,
10564,3LA5,closed,Petroleum Helicopters Heliport,30.2169,-93.153801,10,NA_,US,US-LA,Lake Charles,no,,,,,,3LA5
36267,SITH,small_airport,Fazenda Itaipu Airport,-17.67361069,-50.38805771,1644,SA,BR,BR-GO,Turvelândia,no,SITH,,,,,
7398,0ND7,small_airport,Saville Private Airport,46.46530151,-100.1050034,1961,NA_,US,US-ND,Hazelton,no,0ND7,,0ND7,,,
42856,AR-0434,small_airport,La Carlota Airport,-33.45000076,-63.34999847,505,SA,AR,AR-X,La Carlota,no,,,LCT,,,
38411,YKIA,small_airport,Kiana Station Airport,-17.24169922,136.1750031,,OC,AU,AU-NT,,no,YKIA,,,,,
326745,PT-0102,heliport,Cascais Marina Heliport,38.693789,-9.41472,,EU,PT,PT-11,Cascais,no,,,,,,
320898,IT-0484,small_airport,Campo di Volo Squadra Avvoltoi,45.241525,11.004096,,EU,IT,IT-34,Isola della Scala (VR),no,,,VRISO,,,
13712,71XS,closed,Flying V Airport,33.3465,-97.205803,680,NA_,US,US-TX,Sanger,no,,,,,,"71XS, 24726.011*A"
326180,US-0806,small_airport,Pro Agri Airport,33.401761,-102.314005,3471,NA_,US,US-TX,Ropesville,no,TS84,,TS84,,,
45310,2CN8,small_airport,Lake Arrowhead Airport,34.304167,-117.151389,4610,NA_,US,US-CA,Lake Arrowhead,no,2CN8,,2CN8,,,
319059,MX-0182,small_airport,Xpujil Airport,18.51111,-89.40226,850,NA_,MX,MX-CAM,Calakmul,no,,,XJL,,,
41154,ZA-0005,small_airport,Blanco Airport,-32.08333206,26.29999924,4200,AF,ZA,ZA-EC,Tarkastad,no,,,,,,
35150,KXSA,small_airport,Tappahannock-Essex County Airport,37.85960007,-76.89409637,135,NA_,US,US-VA,Tappahannock,no,KXSA,,XSA,http://www.tappahannockessexairport.com/,https://en.wikipedia.org/wiki/Tappahannock-Essex_County_Airport,
43501,FR-0161,heliport,Centre Hospitalier Heliport,47.49027634,-0.554166973,149,EU,FR,FR-PDL,Angers,no,,,,,,
28201,CJL7,seaplane_base,Confederation Lake Seaplane Base,51.04999924,-92.83329773,1323,NA_,CA,CA-ON,,no,CJL7,,CJL7,,,
42246,BITH,closed,Sauðanes Airport,66.25060272,-15.26720047,15,EU,IS,IS-6,Þórshöfn,no,BITH,,,,https://en.wikipedia.org/wiki/%C3%9E%C3%B3rsh%C3%B6fn_Airport,THO
18450,K1B0,small_airport,Dexter Regional Airport,45.0041008,-69.23699951,533,NA_,US,US-ME,Dexter,no,K1B0,,1B0,,,
334976,BR-0714,small_airport,Fazenda Pindorama Airport,-13.684958,-57.802416,1863,SA,BR,BR-MT,Campo Novo do Parecis,no,SJVN,,MT0491,,,
15522,97G,small_airport,Glowacki Airport,43,-84.59580231,775,NA_,US,US-MI,St Johns,no,97G,,97G,,,
5559,RJEO,medium_airport,Okushiri Airport,42.07170105,139.4329987,161,AS,JP,JP-01,Okushiri Island,yes,RJEO,OIR,,,https://en.wikipedia.org/wiki/Okushiri_Airport,
10057,33MO,closed,Leaming Field,37.251401,-94.0569,1135,NA_,US,US-MO,Golden City,no,,,,,,33MO
22647,MY91,heliport,Douglas County Hospital Heliport,45.87360001,-95.37729645,1418,NA_,US,US-MN,Alexandria,no,MY91,,MY91,,,
333591,CZ-0167,small_airport,Dolní Bojanovice Airstrip,48.85482,17.01794,,EU,CZ,CZ-JM,,no,,,,,,
1918,CYTE,medium_airport,Cape Dorset Airport,64.23000336,-76.52670288,164,NA_,CA,CA-NU,Cape Dorset,yes,CYTE,YTE,,,https://en.wikipedia.org/wiki/Cape_Dorset_Airport,
36571,SJHB,heliport,Real Hospital Português Heliport,-8.06388855,-34.89777756,221,SA,BR,BR-PE,Recife,no,SJHB,,,,,
318348,BW-0030,small_airport,Chitabe Airstrip,-19.467144,23.378341,,AF,BW,BW-NW,,no,,,,,,
772,CCP6,small_airport,Caniapiscau Airport,54.83779907,-69.89279938,1672,NA_,CA,CA-QC,Caniapiscau,no,CCP6,,CCP6,,https://en.wikipedia.org/wiki/Caniapiscau_Aerodrome,CP6
328843,MX-0776,small_airport,Pista Lazaro Cardenas,32.592669,-115.006108,82,NA_,MX,MX-BCN,Mexicali,no,,,PLZ,,,
9824,2V3,closed,Hartenbower Hectares Airport,41.181499,-89.146698,733,NA_,US,US-IL,Lostant,no,,,,,,"IS56, 2V3, 48IL"
316793,BR-0050,small_airport,Portelândia Airstrip,-17.3494,-52.6632,2905,SA,BR,BR-GO,Portelândia,no,,,,,,
41484,WRLH,small_airport,Tanah Grogot Airport,-1.910130024,116.2020035,17,AS,ID,ID-KI,Tanah Grogot-Borneo Island,no,WRLH,TNB,,,,
329837,US-1019,closed,Airlift Helicopters Heliport,39.616917,-119.895933,5355,NA_,US,US-NV,Reno,no,,,,,,50NV
6555,00OH,closed,Exit 3 Airport,41.590476,-84.141583,785,NA_,US,US-OH,Wauseon,no,,,,,,"64D, 00OH"
9850,2WA3,small_airport,Stuart Island West Airport,48.68450165,-123.2099991,200,NA_,US,US-WA,Friday Harbor,no,2WA3,,2WA3,,,
10669,3NJ4,heliport,Sarnoff Princeton Heliport,40.33340073,-74.63289642,90,NA_,US,US-NJ,Princeton,no,3NJ4,,3NJ4,,,
10237,37MI,small_airport,Handleman Sky Ranch Airport,42.85279846,-83.22769928,1150,NA_,US,US-MI,Oxford,no,37MI,,37MI,,,
17127,DE12,small_airport,Owens Field,38.80569839,-75.41269684,50,NA_,US,US-DE,Ellendale,no,DE12,,DE12,,,
323968,EBLM,heliport,Meulebeke Heliport,50.931667,3.293889,,EU,BE,BE-VWV,Meulebeke,no,EBLM,,,,,
300368,RK1L,heliport,C 126 Heliport,37.924399,126.793232,66,AS,KR,KR-41,Nopeuneumjari,no,RK1L,,RK1L,,,
36239,SIRX,heliport,Vila Velha Heliport,-23.024389,-44.342784,79,SA,BR,BR-RJ,Angra Dos Reis,no,SIQB,,RJ0088,,,SIRX
15160,8PS2,small_airport,Still Meadow Farm Airport,41.31060028,-80.16280365,1370,NA_,US,US-PA,Jackson Center,no,8PS2,,8PS2,,,
6605,01MD,seaplane_base,Annapolis Seaplane Base,38.999199,-76.456001,,NA_,US,US-MD,Annapolis,no,01MD,,01MD,,,
10155,35NJ,heliport,Mid-State Heliport,40.60039902,-75.7193985,260,NA_,US,US-NJ,Somerville,no,35NJ,,35NJ,,,
8407,1LA3,small_airport,Goose Island Airport,30.03079987,-92.83350372,4,NA_,US,US-LA,Hayes,no,1LA3,,1LA3,,,
332269,CCB8,heliport,Kilbride (Bot),43.448236,-79.94885,895,NA_,CA,CA-ON,,no,CCB8,,CCB8,,,
8697,1TX1,small_airport,Yoakum Airport,31.85569954,-98.41419983,1130,NA_,US,US-TX,Gustine,no,1TX1,,1TX1,,,
8513,1NA5,small_airport,Gienger/Box Bar Ranch Airport,46.625,-99.45040131,1950,NA_,US,US-ND,Streeter,no,1NA5,,1NA5,,,
28909,LFJE,small_airport,Altiport de La Motte Chalancon,44.4958,5.40285,2887,EU,FR,FR-ARA,,no,LFJE,,,,,
1096,CJM5,small_airport,Frontier Airport,49.16669846,-108.5670013,2960,NA_,CA,CA-SK,Frontier,no,CJM5,,CJM5,,https://en.wikipedia.org/wiki/Frontier_Airport,JM5
22557,MU65,small_airport,Lakeside Airport,37.76950073,-90.46569824,910,NA_,US,US-MO,Farmington,no,MU65,,MU65,,,
